city,lat,lng,country,iso2,admin,capital,population,population_proper
Shanghai,31.222222,121.458056,China,CN,Shanghai,admin,14987000,14608512
Beijing,39.928819,116.388869,China,CN,Beijing,primary,11106000,7480601
Guangzhou,23.116667,113.25,China,CN,Guangdong,admin,8829000,3152825
Shenzhen,22.533333,114.133333,China,CN,Guangdong,minor,7581000,1002592
Wuhan,30.583333,114.266667,China,CN,Hubei,admin,7243000,4184206
Tianjin,39.142222,117.176667,China,CN,Tianjin,admin,7180000,3766207
Chongqing,29.562778,106.552778,China,CN,Chongqing,admin,6461000,3967028
Shenyang,41.792222,123.432778,China,CN,Liaoning,admin,4787000,3512192
Dongguan,23.048889,113.744722,China,CN,Guangdong,minor,4528000,4528000
Chengdu,30.666667,104.066667,China,CN,Sichuan,admin,4123000,3950437
Lianhu,34.258479,108.924205,China,CN,Shaanxi,minor,4009000,3225812
Hechi,23.0027,109.84,China,CN,Guangxi,,3830000,2720379
Nanjing,32.061667,118.777778,China,CN,Jiangsu,admin,3679000,3087010
Guiyang,26.583333,106.716667,China,CN,Guizhou,admin,3662000,1171633
Harbin,45.75,126.65,China,CN,Heilongjiang,admin,3621000,3229883
Zhangzhou,24.513333,117.655556,China,CN,Fujian,minor,3531147,1338452
Changchun,43.88,125.322778,China,CN,Jilin,admin,3183000,2537421
Dalian,38.912222,121.602222,China,CN,Liaoning,,3167000,2035307
Zibo,36.790556,118.063333,China,CN,Shandong,,3061000,669770
Hangzhou,30.29365,120.161419,China,CN,Zhejiang,admin,3007000,1878129
Kunming,25.038889,102.718333,China,CN,Yunnan,admin,2931000,1023674
Taiyuan,37.869444,112.560278,China,CN,Shanxi,admin,2913000,2722475
Qingdao,36.066049,120.369393,China,CN,Shandong,minor,2866000,1642245
Jinan,36.668333,116.997222,China,CN,Shandong,admin,2798000,2069266
Zhengzhou,34.683611,113.5325,China,CN,Henan,,2636000,2014125
Fuzhou,26.061389,119.306111,China,CN,Fujian,admin,2606000,1179720
Changsha,28.2,112.966667,China,CN,Hunan,admin,2604000,2073938
Xiangtandong,27.866667,112.933333,China,CN,Hunan,,2586948,1779960
Lanzhou,36.057006,103.839868,China,CN,Gansu,admin,2561000,2004218
Xiamen,24.479794,118.081869,China,CN,Fujian,minor,2519000,578337
Jinjiao,40.743394,120.816702,China,CN,Liaoning,,2426000,313247
Shijiazhuang,38.041389,114.478611,China,CN,Hebei,admin,2417000,1992474
Jilin,43.850833,126.560278,China,CN,Jilin,,2396000,1881977
Wenzhou,27.999416,120.66682,China,CN,Zhejiang,,2350000,865672
Nanchangshi,28.655758,115.905049,China,CN,Jiangxi,,2350000,1871351
Nanchong,30.795075,106.084735,China,CN,Sichuan,minor,2174000,2174000
Nanning,22.816667,108.316667,China,CN,Guangxi,admin,2167000,803788
Ürümqi,43.807347,87.630506,China,CN,Xinjiang,admin,2151000,1508225
Daguozhuangcun,34.906549,117.60353,China,CN,Shandong,,2145000,183665
Yantai,37.533333,121.4,China,CN,Shandong,,2116000,719332
Linyi,35.063056,118.342778,China,CN,Shandong,,2082000,270669
Haikou,20.045833,110.341667,China,CN,Hainan,admin,2046189,1167428
Baotou,40.652222,109.822222,China,CN,Inner Mongolia,,2036000,423329
Hefei,31.863889,117.280833,China,CN,Anhui,admin,2035000,1388904
Suzhou,33.636111,116.978889,China,CN,Anhui,,1964000,1964000
Lanzhuang,32.980022,112.495059,China,CN,Henan,,1944000,251532
Ningbo,29.878186,121.549453,China,CN,Zhejiang,minor,1923000,719867
Tangshan,39.633333,118.183333,China,CN,Hebei,,1879000,1596949
Datong,40.093611,113.291389,China,CN,Shanxi,,1873000,1052678
Shucheng,34.121282,118.780783,China,CN,Jiangsu,minor,1770000,1770000
Shangqiu,34.45,115.65,China,CN,Henan,,1753000,181218
Wuxi,31.568873,120.288573,China,CN,Jiangsu,minor,1749000,1108647
Hohhot,40.810556,111.652222,China,CN,Inner Mongolia,admin,1726000,774477
Luoyang,34.683611,112.453611,China,CN,Henan,,1715000,1390581
Daqing,46.583333,125.0,China,CN,Heilongjiang,,1693000,203488
Lu’an,31.756944,116.491389,China,CN,Anhui,minor,1690000,1126455
Wanxian,30.815439,108.370891,China,CN,Chongqing,,1680000,1680000
Suzhou,31.304077,120.59538,China,CN,Jiangsu,minor,1650000,1343091
Qiqihar,47.34088,123.960448,China,CN,Heilongjiang,minor,1641000,882364
Anshan,41.123611,122.99,China,CN,Liaoning,,1639000,1199275
Handan,36.600556,114.467778,China,CN,Hebei,,1631000,1358318
Tai’an,36.185278,117.12,China,CN,Shandong,,1629000,1629000
Shantou,23.36814,116.71479,China,CN,Guangdong,minor,1601000,1333973
Zhanjiang,21.281452,110.342713,China,CN,Guangdong,minor,1590000,637790
Xiantao,30.383333,113.4,China,CN,Hubei,,1556000,239406
Weifang,36.71,119.101944,China,CN,Shandong,,1553000,394732
Xinyang,32.122778,114.065556,China,CN,Henan,,1541000,1282888
Luzhou,28.872391,105.44049,China,CN,Sichuan,minor,1537000,1537000
Tantou,25.9559,114.938,China,CN,Jiangxi,,1500000,932269
Liuzhou,24.312582,109.389157,China,CN,Guangxi,minor,1497000,1375061
Fushun,41.855833,123.923333,China,CN,Liaoning,,1470000,1400646
Changde,29.167407,111.707688,China,CN,Hunan,,1469000,517780
Neijiang,29.583536,105.06216,China,CN,Sichuan,minor,1466000,546854
Quanzhou,24.913889,118.585833,China,CN,Fujian,minor,1463000,184143
Huainan,32.626389,116.996944,China,CN,Anhui,,1451000,1027655
Suining,30.508017,105.573324,China,CN,Sichuan,minor,1425000,1425000
Mianyang,31.459339,104.754235,China,CN,Sichuan,minor,1396000,264136
Huashan,31.701453,118.495632,China,CN,Anhui,,1366302,633940
Yiyang,28.589167,112.328333,China,CN,Hunan,,1352000,202608
Heze,35.239289,115.473578,China,CN,Shandong,minor,1338000,254602
Zhangshu,31.805735,120.005059,China,CN,Jiangsu,,1327000,949018
Chifeng,42.268333,118.963611,China,CN,Inner Mongolia,minor,1277000,346654
Huaiyin,33.588611,119.019167,China,CN,Jiangsu,,1264000,555230
Mudanjiang,44.583333,129.6,China,CN,Heilongjiang,minor,1244000,665915
Huzhou,30.870301,120.093297,China,CN,Zhejiang,minor,1231000,158320
Maoling,21.891112,110.84503,China,CN,Guangdong,,1217715,1217715
Jining,35.405,116.581389,China,CN,Shandong,,1186000,450327
Leshan,29.562275,103.76386,China,CN,Sichuan,,1157000,154477
Shangrao,28.453221,117.968604,China,CN,Jiangxi,minor,1144577,700266
Yuzhi,22.6089,110.114,China,CN,Guangxi,,1127000,148485
Xianyangshi,34.346335,108.718164,China,CN,Shaanxi,,1126000,1126000
Baoding,38.851111,115.490278,China,CN,Hebei,,1107000,995652
Zigong,29.341622,104.776887,China,CN,Sichuan,,1105000,689961
Ankang,32.68,109.017222,China,CN,Shaanxi,,1100000,950000
Jinhua,29.106782,119.644207,China,CN,Zhejiang,minor,1092852,142206
Zhuzhou,27.833333,113.15,China,CN,Hunan,minor,1080000,709358
Xiangyang,32.042203,112.144794,China,CN,Hubei,minor,1069000,462956
Xining,36.625541,101.75739,China,CN,Qinghai,admin,1048000,767531
Zhangjiakou,40.81,114.879444,China,CN,Hebei,,1046000,559641
Zhuhai,22.276944,113.567778,China,CN,Guangdong,minor,1023000,1023000
Jiamusi,46.799272,130.316328,China,CN,Heilongjiang,minor,1020000,549549
Hengyang,26.888056,112.615,China,CN,Hunan,,1016000,759602
Benxi,41.288611,123.765,China,CN,Liaoning,,1012000,835866
Tiezhuang,39.947966,119.571539,China,CN,Hebei,,1003000,759718
Yaowan,25.1067,99.1515,China,CN,Yunnan,,1000000,850000
Yinchuan,38.468056,106.273056,China,CN,Ningxia,admin,991000,324228
Jiaxing,30.752198,120.749997,China,CN,Zhejiang,minor,988000,466101
Guilin,25.281944,110.286389,China,CN,Guangxi,minor,987000,649352
Yichun,27.833333,114.4,China,CN,Jiangxi,minor,982000,982000
Dayangquan,37.846236,113.565415,China,CN,Shanxi,,981448,722155
Jixi,45.301095,130.957181,China,CN,Heilongjiang,minor,965000,403759
Xigui,34.4065,118.341,China,CN,Jiangsu,,962656,962656
Pingxiang,27.616722,113.853527,China,CN,Jiangxi,minor,961000,372123
Jinzhou,41.107778,121.141667,China,CN,Liaoning,,956000,604269
Nantong,32.030278,120.874722,China,CN,Jiangsu,minor,947000,666251
Foshan,23.026771,113.131483,China,CN,Guangdong,minor,943000,627348
Xinyu,27.839063,114.845909,China,CN,Jiangxi,minor,913000,97480
Huaibei,33.974444,116.791667,China,CN,Anhui,,913000,903039
Yibin,28.766667,104.623832,China,CN,Sichuan,minor,902000,242111
Xiaobengbu,32.95,117.333333,China,CN,Anhui,,894000,576648
Tongliao,43.6125,122.265278,China,CN,Inner Mongolia,minor,884000,261110
Yangjiang,21.855635,111.962724,China,CN,Guangdong,minor,872363,630000
Dandong,40.129167,124.394722,China,CN,Liaoning,,870000,631973
Xuanzhou,30.9525,118.755278,China,CN,Anhui,,866000,866000
Rizhao,35.4275,119.455278,China,CN,Shandong,minor,865000,246387
Jiaozuo,35.239722,113.233056,China,CN,Henan,,857000,517540
Zhenjiang,32.210863,119.455076,China,CN,Jiangsu,minor,854000,632552
Anshun,26.25,105.933333,China,CN,Guizhou,,849000,351936
Zunyi,27.686667,106.907222,China,CN,Guizhou,,849000,466292
Jingshan,33.699317,113.321308,China,CN,Henan,,849000,849000
Yuci,37.680278,112.731944,China,CN,Shanxi,,840000,235929
Yuanzhuang,33.417761,120.103747,China,CN,Jiangsu,,839000,839000
Linfen,36.088889,111.518889,China,CN,Shanxi,,834000,232566
Heiyutang,29.342355,113.075988,China,CN,Hunan,,826000,826000
Xingyi,25.05,104.983333,China,CN,Guizhou,,816000,263072
Langfang,39.509722,116.694722,China,CN,Hebei,,810000,578931
Wuhubei,31.35,118.333333,China,CN,Anhui,,810000,507524
Shuibatang,27.3292,103.747,China,CN,Yunnan,,809000,109400
Lingyuan,41.24,119.401111,China,CN,Liaoning,,806000,806000
Baojishi,34.372458,107.164499,China,CN,Shaanxi,,800000,800000
Yingkou,40.664823,122.228329,China,CN,Liaoning,minor,795000,591159
Liaoyang,41.271944,123.173056,China,CN,Liaoning,,794000,687890
Yichun,47.724635,128.823885,China,CN,Heilongjiang,minor,777000,109223
Shaoxing,30.011019,120.571528,China,CN,Zhejiang,minor,777000,421283
Fuyuan,30.016673,119.948248,China,CN,Zhejiang,,771000,771000
Fuxin,42.058889,121.745,China,CN,Liaoning,,770000,689050
Shiyanjie,32.6,110.75,China,CN,Hubei,,770000,537647
Jincheng,35.502222,112.832778,China,CN,Shanxi,minor,760000,280000
Hegang,47.351176,130.300115,China,CN,Heilongjiang,minor,743307,572360
Beihai,21.483333,109.1,China,CN,Guangxi,,728978,405600
Shaoguan,24.8,113.583333,China,CN,Guangdong,minor,720266,628749
Hanzhuang,34.586132,119.230194,China,CN,Jiangsu,,715600,715600
Qingyuan,23.7,113.033333,China,CN,Guangdong,minor,706717,706717
Changzhi,36.183889,113.105278,China,CN,Shanxi,minor,706000,706000
Huangshi,30.204173,115.077607,China,CN,Hubei,minor,688090,688090
Huadong,35.6967,114.984,China,CN,Henan,,666322,666322
Changping,40.216116,116.234708,China,CN,Beijing,,614821,130000
Taizhou,32.49069,119.908119,China,CN,Jiangsu,minor,612356,612356
Xingtai,37.063056,114.494167,China,CN,Hebei,,611739,611739
Anqing,30.513646,117.047234,China,CN,Anhui,minor,580497,358661
Shihezi,44.302298,86.036938,China,CN,Xinjiang,minor,573182,572772
Shuozhou,39.315833,112.4225,China,CN,Shanxi,minor,570000,246137
Tongling,30.933333,117.816667,China,CN,Anhui,,562832,312588
Weihai,37.509136,122.113557,China,CN,Shandong,minor,560255,152595
Siping,43.163333,124.368611,China,CN,Jilin,,555609,502013
Sunjialong,29.697889,115.991215,China,CN,Jiangxi,,545616,545616
Kashgar,39.470655,75.989513,China,CN,Xinjiang,minor,543914,400225
Yangzhou,32.397222,119.435833,China,CN,Jiangsu,,539715,539715
Jiangmen,22.583333,113.083333,China,CN,Guangdong,minor,532419,532419
Cangzhou,38.316667,116.866667,China,CN,Hebei,,527681,527681
Jiangxia,27.15415,114.976572,China,CN,Jiangxi,,520248,460194
Shashi,30.307222,112.244722,China,CN,Hubei,,520000,498780
Liaoyuan,42.903611,125.135833,China,CN,Jilin,,506548,465249
Shuangyashan,46.636111,131.153889,China,CN,Heilongjiang,,500000,500000
Wuwei,37.926718,102.632018,China,CN,Gansu,minor,493092,493092
Yanji,42.9075,129.507778,China,CN,Jilin,,488740,326957
Zhaoqing,23.051157,112.459722,China,CN,Guangdong,minor,480000,361969
Jiaojiang,28.680278,121.442778,China,CN,Zhejiang,,471500,470804
Chaoyang,41.570278,120.458611,China,CN,Liaoning,,470296,410005
Jingdezhen,29.2947,117.207887,China,CN,Jiangxi,minor,457298,310565
Hengshui,37.732222,115.701111,China,CN,Hebei,,456356,456356
Taihe,45.761951,130.851307,China,CN,Heilongjiang,,450617,345033
Chengde,40.9725,117.936111,China,CN,Hebei,,449325,305933
Xuwan,34.033597,113.865298,China,CN,Henan,,449258,449258
Wuzhou,23.483333,111.316667,China,CN,Guangxi,minor,442315,265846
Wanyuan,32.4188,105.863,China,CN,Sichuan,,437435,213365
Chaozhou,23.665129,116.637864,China,CN,Guangdong,minor,424787,424787
Luohe,33.563941,114.042717,China,CN,Henan,minor,417356,417356
Meizhou,24.297687,116.107241,China,CN,Guangdong,minor,414930,144212
Yili,43.9,81.35,China,CN,Xinjiang,minor,403489,403489
Yuxi,24.355,102.542222,China,CN,Yunnan,minor,396325,103829
Baicheng,45.607457,122.820763,China,CN,Jilin,minor,386861,316970
Xichang,27.896422,102.263415,China,CN,Sichuan,minor,379993,126787
Dezhou,37.451269,116.310462,China,CN,Shandong,minor,379555,379555
Zhoukou,33.633333,114.633333,China,CN,Henan,minor,377061,377061
Putian,25.439444,119.010278,China,CN,Fujian,minor,376558,376558
Shache,38.416667,77.240556,China,CN,Xinjiang,,373492,191291
Quzhou,28.959444,118.868611,China,CN,Zhejiang,,370000,82216
Longyan,25.107222,117.0225,China,CN,Fujian,minor,367896,367896
Sanya,18.243056,109.505,China,CN,Hainan,minor,362689,144753
Fuyu,45.183333,124.816667,China,CN,Jilin,,356905,138704
Wafangdian,39.618333,122.008056,China,CN,Liaoning,,355844,250591
Aksu,41.271958,80.240853,China,CN,Xinjiang,minor,340020,279389
Tieling,42.293056,123.841389,China,CN,Liaoning,,340000,333907
Shawan,30.006,103.021,China,CN,Sichuan,,340000,340000
Hanguzhan,39.266667,117.8,China,CN,Tianjin,,332793,208369
Heyuan,23.733333,114.683333,China,CN,Guangdong,minor,330961,207600
Baishan,41.938526,126.419651,China,CN,Jilin,minor,330000,330000
Chenzhou,25.8,113.033333,China,CN,Hunan,minor,322997,179038
Ningde,26.661667,119.522778,China,CN,Fujian,minor,314077,65170
Huizhou,23.083333,114.4,China,CN,Guangdong,minor,289201,289201
Tongchuanshi,35.074739,109.084953,China,CN,Shaanxi,,282258,223603
Jining,41.0275,113.105833,China,CN,Inner Mongolia,,281716,258757
Xinzhou,38.409167,112.733333,China,CN,Shanxi,minor,279607,154003
Jinshi,29.60487,111.870116,China,CN,Hunan,minor,274000,82906
Hotan,37.107497,79.935485,China,CN,Xinjiang,minor,261730,114000
Zhuanghe,39.700833,122.991111,China,CN,Liaoning,,261510,80384
Turpan,42.947694,89.178862,China,CN,Xinjiang,minor,254900,102827
Chuxiong,25.036389,101.545556,China,CN,Yunnan,,254370,254370
Suihua,46.639536,126.995082,China,CN,Heilongjiang,minor,252245,249561
Linhai,28.848147,121.128073,China,CN,Zhejiang,,251759,152937
Laiyang,36.975833,120.713611,China,CN,Shandong,,250000,169594
Qinzhou,21.972965,108.626123,China,CN,Guangxi,minor,245376,100996
Hebi,35.899167,114.1925,China,CN,Henan,,244662,244662
Ulanhot,46.083333,122.083333,China,CN,Inner Mongolia,,241894,165846
Xiahuang,28.02544,116.363591,China,CN,Jiangxi,,241104,241104
Shayinshi,29.704411,112.439849,China,CN,Hubei,,231787,122411
Zhangye,38.934167,100.451667,China,CN,Gansu,minor,230728,96228
Beipiao,41.791944,120.779167,China,CN,Liaoning,,228515,154999
Qiantucheng,36.423265,115.99729,China,CN,Shandong,,226930,226930
Hancheng,35.460278,110.429167,China,CN,Shaanxi,,222135,58049
Lhasa,29.65,91.1,China,CN,Tibet,admin,219599,118721
Wuhai,39.684422,106.815825,China,CN,Inner Mongolia,minor,218427,218427
Nanping,26.645,118.173611,China,CN,Fujian,minor,213054,171674
Sanming,26.248611,117.618611,China,CN,Fujian,minor,209444,439
Pingliang,35.539167,106.686111,China,CN,Gansu,minor,207256,108156
Korla,41.760547,86.152309,China,CN,Xinjiang,minor,206373,179465
Jiutai,44.1525,125.832778,China,CN,Jilin,,205399,175115
Puqi,29.716667,113.883333,China,CN,Hubei,,205164,132891
Liangjiang,24.805556,112.383889,China,CN,Guangdong,,203639,92827
Huangyan,28.650097,121.265912,China,CN,Zhejiang,,198713,150448
Dunhua,43.3725,128.2425,China,CN,Jilin,,191870,148844
Anda,46.40202,125.314536,China,CN,Heilongjiang,minor,181533,181271
Zhanwang,46.047334,125.942455,China,CN,Heilongjiang,,179980,154406
Lishui,28.460417,119.910291,China,CN,Zhejiang,minor,172777,98946
Weinanshi,34.493766,109.493083,China,CN,Shaanxi,,172321,172321
Fuyang,32.9,115.816667,China,CN,Anhui,,170023,170023
Simao,22.788627,100.974807,China,CN,Yunnan,minor,162725,162725
Xiaoganzhan,30.95,113.933333,China,CN,Hubei,,160437,160437
Dali,25.58474,100.212292,China,CN,Yunnan,,156685,134040
Yulinshi,38.291807,109.737531,China,CN,Shaanxi,,155960,90870
Beian,48.239335,126.504552,China,CN,Heilongjiang,,154936,154936
Dongzhugu,38.4758,115.015,China,CN,Hebei,,152934,152934
Xishan,23.3597,104.235,China,CN,Yunnan,,152388,64404
Deyang,31.130192,104.381981,China,CN,Sichuan,minor,152194,152194
Jiayuguan,39.793163,98.29767,China,CN,Gansu,minor,148279,122396
Hujiachong,33.106791,107.060205,China,CN,Shaanxi,,145986,145986
Jinchang,38.521129,102.187786,China,CN,Gansu,minor,144363,138977
Altay,47.848641,88.133607,China,CN,Xinjiang,minor,142000,139341
Jieshou,33.25,115.35,China,CN,Anhui,,141993,141993
Congjiatun,44.425063,125.134863,China,CN,Jilin,,141482,141482
Dunhuang,40.166667,94.683333,China,CN,Gansu,,140094,138356
Zalantun,48.0,122.716667,China,CN,Inner Mongolia,minor,138032,132224
Shizuishan,39.233333,106.769444,China,CN,Ningxia,,136570,83078
Shuangcheng,45.35,126.283333,China,CN,Heilongjiang,,130710,106340
Macheng,31.178333,115.031944,China,CN,Hubei,,126366,126366
Laiwu,36.192778,117.656944,China,CN,Shandong,,124108,124108
Xilin Hot,43.966667,116.033333,China,CN,Inner Mongolia,,120965,111348
Huanghua,38.368333,117.351389,China,CN,Hebei,,120000,88486
Longsheng,27.6644,109.143,China,CN,Guizhou,,118290,90593
Huanren,41.264722,125.366667,China,CN,Liaoning,,116621,66147
Yakeshi,49.283333,120.733333,China,CN,Inner Mongolia,minor,116284,97810
Binzhou,37.366667,118.016667,China,CN,Shandong,,115893,115893
Zhijiang,27.458139,109.659196,China,CN,Hunan,minor,113907,113907
Shaowu,27.340891,117.483096,China,CN,Fujian,,112585,1194
Kuqa,41.727778,82.936389,China,CN,Xinjiang,minor,111499,68105
Hailun,47.4565,126.953678,China,CN,Heilongjiang,minor,109881,99816
Dali,34.795863,109.938948,China,CN,Shaanxi,minor,109696,109696
Tieli,46.980428,128.044975,China,CN,Heilongjiang,minor,109636,108821
Heihe,50.250979,127.4773,China,CN,Heilongjiang,minor,109427,419
Karamay,45.598587,84.865461,China,CN,Xinjiang,minor,108769,108769
Nehe,48.483333,124.833333,China,CN,Heilongjiang,,108253,41622
Golmud,36.406717,94.900606,China,CN,Qinghai,minor,107092,107092
Longjiang,47.33072,123.17816,China,CN,Heilongjiang,minor,106384,67846
Qamdo,31.143107,97.176301,China,CN,Tibet,minor,100000,86280
Tumen,42.966111,129.8425,China,CN,Jilin,,99721,78719
Shangzhi,45.214064,127.974256,China,CN,Heilongjiang,minor,96980,82419
Boli,45.752794,130.572112,China,CN,Heilongjiang,minor,95260,71374
Yishui,35.784722,118.628056,China,CN,Shandong,,94115,94115
Manzhouli,49.6,117.433333,China,CN,Inner Mongolia,,93620,54808
Dalai,45.5,124.3,China,CN,Jilin,,93297,76294
Yejiagou,32.498158,111.476276,China,CN,Hubei,,92008,92008
Pingdu,36.784444,119.946389,China,CN,Shandong,,91077,91077
Fujin,47.26,132.032222,China,CN,Heilongjiang,,89442,70743
Wangqing,43.321787,129.763416,China,CN,Jilin,minor,88732,70918
Guangming,25.861795,116.302318,China,CN,Fujian,,87458,87458
Mishan,45.543056,131.882222,China,CN,Heilongjiang,,87257,73661
Nenjiang,49.174143,125.21774,China,CN,Heilongjiang,minor,87236,72134
Panshi,42.942222,126.056111,China,CN,Jilin,,86216,80200
Hedong,42.564032,128.998051,China,CN,Jilin,,85756,80309
Linjiang,41.806944,126.907778,China,CN,Jilin,minor,84315,69149
Nangong,37.358056,115.374444,China,CN,Hebei,,82386,82386
Koktokay,46.990665,89.523615,China,CN,Xinjiang,minor,80000,40000
Xigazê,29.25,88.883333,China,CN,Tibet,minor,80000,38629
Shulan,44.416667,126.95,China,CN,Jilin,,78764,77420
Pingyi,35.500556,117.630833,China,CN,Shandong,,78254,78254
Linkou,45.286057,130.26151,China,CN,Heilongjiang,minor,77754,55099
Jiexiu,37.024444,111.9125,China,CN,Shanxi,,77178,77178
Tailai,46.389089,123.413715,China,CN,Heilongjiang,minor,75992,66623
Lanxi,46.25785,126.282691,China,CN,Heilongjiang,minor,72528,61494
Keshan,48.066667,125.9,China,CN,Heilongjiang,,72403,72403
Anlu,31.2575,113.678333,China,CN,Hubei,minor,71198,71198
Baiquan,47.606047,126.084812,China,CN,Heilongjiang,minor,70472,34887
Liuhe,42.240066,125.717173,China,CN,Jilin,minor,68938,66975
Huinan,42.6225,126.261389,China,CN,Jilin,,66315,20208
Qinggang,46.684692,126.105953,China,CN,Heilongjiang,minor,64182,57728
Shangchengjia,28.21749,115.776473,China,CN,Jiangxi,,61469,61469
Langzhong,31.55037,105.99381,China,CN,Sichuan,minor,60542,60542
Gannan,47.914722,123.503056,China,CN,Heilongjiang,minor,59239,34470
Suileng,47.248051,127.095348,China,CN,Heilongjiang,minor,57789,57124
Changling,44.265315,124.000452,China,CN,Jilin,minor,55841,37566
Xinqing,48.287012,129.523367,China,CN,Heilongjiang,,55415,29820
Ning’an,44.343949,129.465556,China,CN,Heilongjiang,minor,54636,54636
Qing’an,46.877586,127.50054,China,CN,Heilongjiang,minor,53206,53206
Tacheng,46.745347,82.958473,China,CN,Xinjiang,minor,49796,49796
Yanshan,24.4902,108.643,China,CN,Guangxi,,47062,47062
Chongyang,27.041111,111.168333,China,CN,Hunan,,45617,45617
Hulin,45.768611,132.992222,China,CN,Heilongjiang,,42559,42559
Oroqen Zizhiqi,50.566667,123.716667,China,CN,Inner Mongolia,minor,40128,40128
Yi’an,47.889005,125.303923,China,CN,Heilongjiang,minor,39924,39924
Pingxiang,22.096944,106.756667,China,CN,Guangxi,,31109,31109
Wuyuan,41.089167,108.272222,China,CN,Inner Mongolia,,30057,30057
Tonghua,41.719722,125.926389,China,CN,Jilin,,27227,27227
Lianwang,26.8527,100.261,China,CN,Yunnan,,18445,18445
Bugt,48.783333,121.933333,China,CN,Inner Mongolia,,17457,17457
Gyangzê,28.920263,89.599556,China,CN,Tibet,minor,10000,10000
Gar,32.11941,80.056099,China,CN,Tibet,minor,10000,500
Kailu,43.583333,121.2,China,CN,Inner Mongolia,minor,2809,2809
Nagqu,31.476776,92.057291,China,CN,Tibet,minor,2500,2000
Fulin,29.347923,102.681881,China,CN,Sichuan,,1049,1049
Linxi,43.516667,118.033333,China,CN,Inner Mongolia,minor,679,679
Dunhou,27.05,114.9,China,CN,Jiangxi,minor,,
Laojie,25.448286,99.556102,China,CN,Yunnan,minor,,
Mengshan,24.214055,110.517751,China,CN,Guangxi,minor,,
Zhongcheng,28.30954,105.230751,China,CN,Sichuan,minor,,
Kaiwen,27.156102,99.834833,China,CN,Yunnan,minor,,
Kaitong,44.813513,123.149999,China,CN,Jilin,minor,,
Fengzhou,36.842778,112.854167,China,CN,Shanxi,minor,,
Chengwu,34.954066,115.884188,China,CN,Shandong,minor,,
Yongning,28.524488,114.365765,China,CN,Jiangxi,minor,,
Fengcheng,24.571172,107.042432,China,CN,Guangxi,minor,,
Zhongba,31.778191,104.739315,China,CN,Sichuan,minor,,
Tangyuan,46.726422,129.899657,China,CN,Heilongjiang,minor,,
Longquan,40.363801,113.66616,China,CN,Shanxi,minor,,
Fenglu,24.676522,102.911293,China,CN,Yunnan,minor,,
Shule,39.402313,76.050804,China,CN,Xinjiang,minor,,
Yancheng,29.743574,103.566793,China,CN,Sichuan,minor,,
Jiaji,19.2425,110.464167,China,CN,Hainan,minor,,
Tafeng,25.354071,112.189866,China,CN,Hunan,minor,,
Lhozhag,28.389965,90.859813,China,CN,Tibet,minor,,
Huangjingba,28.013625,103.99855,China,CN,Yunnan,minor,,
Tangxing,35.74521,111.698721,China,CN,Shanxi,minor,,
Jinhua,26.537999,99.91715,China,CN,Yunnan,minor,,
Fengcheng,35.492199,112.404281,China,CN,Shanxi,minor,,
Longquan,39.084457,112.191193,China,CN,Shanxi,minor,,
Chuqung,33.366667,97.133333,China,CN,Qinghai,minor,,
Wenhua,37.391063,121.589588,China,CN,Shandong,minor,,
Licheng,24.506487,110.38919,China,CN,Guangxi,minor,,
Lihou,36.502891,113.369452,China,CN,Shanxi,minor,,
Sunjia Buzi,42.017065,126.585125,China,CN,Jilin,minor,,
Binzhou,45.752809,127.479863,China,CN,Heilongjiang,minor,,
Qi Xian Chengguanzhen,34.55,114.783333,China,CN,Henan,minor,,
Quyang,33.144722,113.990278,China,CN,Henan,minor,,
Suicheng,33.896298,117.933066,China,CN,Jiangsu,minor,,
Suishan,29.608311,103.486027,China,CN,Sichuan,minor,,
Ganting,34.102407,108.61406,China,CN,Shaanxi,minor,,
Baoshan,31.408447,121.489563,China,CN,Shanghai,minor,,
Haoxue,30.047606,112.467594,China,CN,Hubei,minor,,
Lingjiang,31.734605,105.931621,China,CN,Sichuan,minor,,
Tongyangdao,41.77031,109.969873,China,CN,Inner Mongolia,minor,,
Liaocheng,36.455963,115.977664,China,CN,Shandong,minor,,
Xiaotiechang,26.283768,103.638597,China,CN,Yunnan,minor,,
Qingkou,34.84828,119.108352,China,CN,Jiangsu,minor,,
Jianguo,46.817698,130.396149,China,CN,Heilongjiang,minor,,
Xinning,22.670796,107.889122,China,CN,Guangxi,minor,,
Qapqal,43.801944,81.087222,China,CN,Xinjiang,minor,,
Yunji,26.693199,112.667481,China,CN,Hunan,minor,,
Qiongxi,32.792722,102.542935,China,CN,Sichuan,minor,,
Hongshui,38.424573,100.792604,China,CN,Gansu,minor,,
Cikai,27.763444,98.711047,China,CN,Yunnan,minor,,
Cili,29.424442,111.120131,China,CN,Hunan,minor,,
Shaping,22.770191,112.957757,China,CN,Guangdong,minor,,
Shaping,29.230816,103.265868,China,CN,Sichuan,minor,,
Micheng,25.32037,100.499313,China,CN,Yunnan,minor,,
Luhua,32.067084,102.987858,China,CN,Sichuan,minor,,
Zhaodong,46.067714,125.982631,China,CN,Heilongjiang,minor,,
Xunchang,28.454332,104.714984,China,CN,Sichuan,minor,,
Sanjiang,24.720628,112.294422,China,CN,Guangdong,minor,,
Sanjiang,26.6749,109.196,China,CN,Guizhou,minor,,
Mandalt,43.840278,113.715556,China,CN,Inner Mongolia,minor,,
Xangda,32.205511,96.478087,China,CN,Qinghai,minor,,
Xamba,40.884722,107.14,China,CN,Inner Mongolia,minor,,
Gyamotang,31.533333,95.433333,China,CN,Tibet,minor,,
Guancheng,36.480313,115.435097,China,CN,Shandong,minor,,
Yingcheng,24.165876,113.412675,China,CN,Guangdong,minor,,
Jinling,34.369253,107.149975,China,CN,Shaanxi,minor,,
Dayou,46.636158,126.987527,China,CN,Heilongjiang,minor,,
Matou,23.355338,107.556401,China,CN,Guangxi,minor,,
Pudong,31.235134,121.527592,China,CN,Shanghai,minor,,
Yutian,39.878611,117.739167,China,CN,Hebei,minor,,
Zhushan,29.994524,109.479075,China,CN,Hubei,minor,,
Changtu,42.778842,124.095447,China,CN,Liaoning,minor,,
Yitong,43.326282,125.297263,China,CN,Jilin,minor,,
Yitiaoshan,37.1533,104.062,China,CN,Gansu,minor,,
Huagai,31.546335,104.555319,China,CN,Sichuan,minor,,
Rende,25.558205,103.276037,China,CN,Yunnan,minor,,
Rulong,30.941159,100.310872,China,CN,Sichuan,minor,,
Baokang Chengguanzhen,31.878056,111.256389,China,CN,Hubei,minor,,
Baokang,44.119722,123.304722,China,CN,Inner Mongolia,minor,,
Hecheng,28.139388,120.287985,China,CN,Zhejiang,minor,,
Haimen,31.896189,121.172735,China,CN,Jiangsu,minor,,
Baiquan,42.885382,124.95827,China,CN,Jilin,minor,,
Mengsuo,22.601988,99.551373,China,CN,Yunnan,minor,,
Kangmar,28.559534,89.680088,China,CN,Tibet,minor,,
Weifen,38.480639,111.166637,China,CN,Shanxi,minor,,
Suohe,34.787222,113.358056,China,CN,Henan,minor,,
Songling,31.193303,120.717577,China,CN,Jiangsu,minor,,
Kaiping,39.677985,118.252175,China,CN,Hebei,minor,,
Chengxian Chengguanzhen,33.741111,105.720556,China,CN,Gansu,minor,,
Changzhou,31.773585,119.954007,China,CN,Jiangsu,minor,,
Xinfa,28.830708,104.320768,China,CN,Sichuan,minor,,
Tangyang Chengguanzhen,35.914459,114.35514,China,CN,Henan,minor,,
Fengming,34.441389,107.617778,China,CN,Shaanxi,minor,,
Guidong Chengguanzhen,26.079034,113.940616,China,CN,Hunan,minor,,
Yunmeng Chengguanzhen,31.062508,113.765447,China,CN,Hubei,minor,,
Lianyuan,27.688333,111.664167,China,CN,Hunan,minor,,
Hongwansi,38.835135,99.598649,China,CN,Gansu,minor,,
Xiritala,43.938889,116.070209,China,CN,Inner Mongolia,minor,,
Luxi,27.636184,114.035286,China,CN,Jiangxi,minor,,
Mugala,36.857601,81.668437,China,CN,Xinjiang,minor,,
Hongqi,47.317996,130.267902,China,CN,Heilongjiang,minor,,
Guangming,47.33972,130.286792,China,CN,Heilongjiang,minor,,
Dongshan,47.342772,130.312222,China,CN,Heilongjiang,minor,,
Gounan,47.35941,130.297473,China,CN,Heilongjiang,minor,,
Weitang,30.850208,120.911377,China,CN,Zhejiang,minor,,
Fuding,27.327338,120.213995,China,CN,Fujian,minor,,
Dedang,24.011797,99.239645,China,CN,Yunnan,minor,,
Huaihelu,34.716383,113.641383,China,CN,Henan,minor,,
Taocheng,22.879355,107.156478,China,CN,Guangxi,minor,,
Dangcheng,34.427868,116.376569,China,CN,Anhui,minor,,
Gushu,31.56055,118.481466,China,CN,Anhui,minor,,
Nixia,32.975025,98.09589,China,CN,Sichuan,minor,,
Xibu,23.699059,117.425107,China,CN,Fujian,minor,,
Jiang’an,28.733351,105.068298,China,CN,Sichuan,minor,,
Helixi,30.628408,118.98124,China,CN,Anhui,minor,,
Xihu,36.067345,103.776541,China,CN,Gansu,minor,,
Zhangyelu,36.057516,103.822687,China,CN,Gansu,minor,,
Anning Xilu,36.1035,103.719285,China,CN,Gansu,minor,,
Changshun,41.891389,113.992222,China,CN,Inner Mongolia,minor,,
Yuhu,26.10679,99.98292,China,CN,Yunnan,minor,,
Tianxingchang,27.842293,103.982423,China,CN,Yunnan,minor,,
Suixi,33.890673,116.774725,China,CN,Anhui,minor,,
Suicheng,21.379508,110.250523,China,CN,Guangdong,minor,,
Sui Xian Chengguanzhen,34.447966,115.044394,China,CN,Henan,minor,,
Lubei,28.586331,121.369981,China,CN,Zhejiang,minor,,
Qianyou,33.6775,109.123333,China,CN,Shaanxi,minor,,
Fufeng,34.360505,107.873484,China,CN,Shaanxi,minor,,
Ziyang Chengguanzhen,32.51917,108.532321,China,CN,Shaanxi,minor,,
Shazhou,40.13799,94.662271,China,CN,Gansu,minor,,
Anju,30.349556,105.455937,China,CN,Sichuan,minor,,
Lianzhou,21.666214,109.20116,China,CN,Guangxi,minor,,
Lianzhou,24.781857,112.371196,China,CN,Guangdong,minor,,
Chuimatan,35.7181,102.874067,China,CN,Gansu,minor,,
Bailingmiao,41.691944,110.435556,China,CN,Inner Mongolia,minor,,
Minjian,28.846216,103.545754,China,CN,Sichuan,minor,,
Runing,33.001111,114.354167,China,CN,Henan,minor,,
Rulin,26.34704,110.266268,China,CN,Hunan,minor,,
Yuanjiazhuang,33.523194,107.983004,China,CN,Shaanxi,minor,,
Nahaping,28.431773,103.857825,China,CN,Yunnan,minor,,
Yucheng,29.985206,102.999004,China,CN,Sichuan,minor,,
Guma,37.616805,78.28087,China,CN,Xinjiang,minor,,
Pitong,30.80993,103.882532,China,CN,Sichuan,minor,,
Seke,32.270389,100.331691,China,CN,Sichuan,minor,,
Zhangbei,41.1525,114.707778,China,CN,Hebei,minor,,
Bianjiang,49.5578,128.473068,China,CN,Heilongjiang,minor,,
Shouchun,32.581619,116.792915,China,CN,Anhui,minor,,
Damxung,30.533333,91.1,China,CN,Tibet,minor,,
Luofeng,37.364974,120.409969,China,CN,Shandong,minor,,
Huangshan,29.715258,118.323032,China,CN,Anhui,minor,,
Loufan,38.091796,111.807208,China,CN,Shanxi,minor,,
Licheng,23.295488,113.824648,China,CN,Guangdong,minor,,
Barkol,43.598813,93.008625,China,CN,Xinjiang,minor,,
Dianjun,30.701545,111.259908,China,CN,Hubei,minor,,
Altan Emel,48.666667,116.833333,China,CN,Inner Mongolia,minor,,
Yangchang,26.074487,104.340771,China,CN,Yunnan,minor,,
Yongdeng Chengguanzhen,36.733609,103.259311,China,CN,Gansu,minor,,
Yilong,23.691374,102.487014,China,CN,Yunnan,minor,,
Huidong,26.637446,102.575676,China,CN,Sichuan,minor,,
Dong Liang’erzhuang,36.727111,115.255685,China,CN,Hebei,minor,,
Kuangyuan,24.913791,103.147888,China,CN,Yunnan,minor,,
Linxi,36.862721,115.492476,China,CN,Hebei,minor,,
Xiaodian,37.736389,112.556389,China,CN,Shanxi,minor,,
Hongkou,31.25,121.489167,China,CN,Shanghai,minor,,
Toksun,42.793589,88.64163,China,CN,Xinjiang,minor,,
Zhabu,33.1189,83.3038,China,CN,Tibet,minor,,
Fengxiang,47.575487,130.823062,China,CN,Heilongjiang,minor,,
Fuyu,30.15,116.116667,China,CN,Anhui,minor,,
Longxu,23.416667,111.233333,China,CN,Guangxi,minor,,
Dongcheng,28.893807,120.040243,China,CN,Zhejiang,minor,,
Dianweijie,25.9075,102.854444,China,CN,Yunnan,minor,,
Wuxue,29.850578,115.552504,China,CN,Hubei,minor,,
Wuxuan,23.624655,109.652005,China,CN,Guangxi,minor,,
Dawu,34.466234,100.229935,China,CN,Qinghai,minor,,
Ruoqiang,39.020027,88.164655,China,CN,Xinjiang,minor,,
Gulaobei,30.519413,111.426644,China,CN,Hubei,minor,,
Heping,28.5579,108.49,China,CN,Guizhou,minor,,
Hepingyizu,29.246932,103.082491,China,CN,Sichuan,minor,,
Yujin,29.209088,103.945559,China,CN,Sichuan,minor,,
Xiaojiang,22.272958,109.551843,China,CN,Guangxi,minor,,
Dafeng,23.43422,108.598252,China,CN,Guangxi,minor,,
Molo,30.860043,98.272972,China,CN,Tibet,minor,,
Dasongshu,26.136848,103.57336,China,CN,Yunnan,minor,,
Kuytun,44.427074,84.900691,China,CN,Xinjiang,minor,,
Bayan,46.075563,127.398403,China,CN,Heilongjiang,minor,,
Yicheng,31.360588,119.820157,China,CN,Jiangsu,minor,,
Guji,27.169565,103.284299,China,CN,Yunnan,minor,,
Jiading,25.429505,114.928042,China,CN,Jiangxi,minor,,
Lazanzhong,28.221242,99.732243,China,CN,Yunnan,minor,,
Siyang,27.2116,108.745,China,CN,Guizhou,minor,,
Siyang,22.168409,107.943087,China,CN,Guangxi,minor,,
Sicheng,33.489359,117.856789,China,CN,Anhui,minor,,
Xinyuan,43.451111,83.147778,China,CN,Xinjiang,minor,,
Xinyuan,37.3,99.0,China,CN,Qinghai,minor,,
Hanshou,28.905833,111.956111,China,CN,Hunan,minor,,
Lincheng,26.869319,109.663365,China,CN,Hunan,minor,,
Shengrenjian,34.844218,111.191312,China,CN,Shanxi,minor,,
Shengping,28.485635,98.911388,China,CN,Yunnan,minor,,
Xinhuang,27.373588,109.133763,China,CN,Hunan,minor,,
Jingyu,42.372673,126.801146,China,CN,Jilin,minor,,
Wulan,36.565412,104.684012,China,CN,Gansu,minor,,
Xiangshui,35.476949,106.33112,China,CN,Ningxia,minor,,
Tianning,37.547222,112.160531,China,CN,Shanxi,minor,,
Liuba,33.618611,106.918889,China,CN,Shaanxi,minor,,
Shuguang,47.724107,128.673989,China,CN,Heilongjiang,minor,,
Zhanggu,30.868747,101.888481,China,CN,Sichuan,minor,,
Nanchansi,31.56242,120.300211,China,CN,Jiangsu,minor,,
Liyang,29.6518,111.752,China,CN,Hunan,minor,,
Tongquan,25.4,103.566667,China,CN,Yunnan,minor,,
Nanjie,35.735556,107.635278,China,CN,Gansu,minor,,
Fengchuan,28.7,115.383333,China,CN,Jiangxi,minor,,
Xuejiawan,39.866779,111.220798,China,CN,Inner Mongolia,minor,,
Chong’ansi,31.579874,120.295176,China,CN,Jiangsu,minor,,
Jianping,31.130626,119.178295,China,CN,Anhui,minor,,
Jisegumen,34.0642,80.7712,China,CN,Tibet,minor,,
Qingfeng Chengguanzhen,35.903611,115.105278,China,CN,Henan,minor,,
Qingfu,28.437006,104.516217,China,CN,Sichuan,minor,,
Suizhong,40.329159,120.336526,China,CN,Liaoning,minor,,
Baocheng,18.640278,109.699444,China,CN,Hainan,minor,,
Yong’an,36.657621,111.566433,China,CN,Shanxi,minor,,
Xiaopingba,25.494863,102.512259,China,CN,Yunnan,minor,,
Maindong,31.333333,85.416667,China,CN,Tibet,minor,,
Jingcheng,32.014167,120.2625,China,CN,Jiangsu,minor,,
Nayun,22.331962,99.56132,China,CN,Yunnan,minor,,
Chaling Chengguanzhen,26.790972,113.539754,China,CN,Hunan,minor,,
Pingpo,25.428369,103.754548,China,CN,Yunnan,minor,,
Zhowagoin,28.659104,97.450648,China,CN,Tibet,minor,,
Shanjiao,27.322302,103.068444,China,CN,Yunnan,minor,,
Huliao,24.35764,116.686629,China,CN,Guangdong,minor,,
Xinpu,34.599722,119.159444,China,CN,Jiangsu,minor,,
Fendou,47.409547,129.428217,China,CN,Heilongjiang,minor,,
Huichang,34.903762,112.784261,China,CN,Henan,minor,,
Renhua,25.091253,113.744455,China,CN,Guangdong,minor,,
Yacha,19.230556,109.4475,China,CN,Hainan,minor,,
Pisha,27.070574,102.757709,China,CN,Sichuan,minor,,
Baijiantan,45.689278,85.124414,China,CN,Xinjiang,minor,,
Hangchuan,27.519466,117.334908,China,CN,Fujian,minor,,
Dalain Hob,41.965278,101.063889,China,CN,Inner Mongolia,minor,,
Longbo,25.92922,111.622201,China,CN,Hunan,minor,,
Tuodian,24.666667,101.633333,China,CN,Yunnan,minor,,
Zhongxin,26.616667,101.271538,China,CN,Yunnan,minor,,
Yongfeng,27.428291,112.183377,China,CN,Hunan,minor,,
Yongding,25.198596,102.461887,China,CN,Yunnan,minor,,
Yongding,26.04122,101.686418,China,CN,Yunnan,minor,,
Qingfenglin,27.787767,105.145732,China,CN,Yunnan,minor,,
Shuitianzhai,27.764327,105.251579,China,CN,Yunnan,minor,,
Zhongcun,26.134589,102.681092,China,CN,Yunnan,minor,,
Kuancheng,40.605556,118.4825,China,CN,Hebei,minor,,
Chugqênsumdo,33.433333,101.433333,China,CN,Qinghai,minor,,
Pucheng,27.923333,118.533333,China,CN,Fujian,minor,,
Donghe,32.233414,106.301257,China,CN,Sichuan,minor,,
Toding,31.480563,79.798033,China,CN,Tibet,minor,,
Toli,45.938586,83.600558,China,CN,Xinjiang,minor,,
Nu’erbage,37.113399,79.910337,China,CN,Xinjiang,minor,,
Yangming,44.596291,129.620814,China,CN,Heilongjiang,minor,,
Poyang,28.992423,116.667536,China,CN,Jiangxi,minor,,
Xiping,40.039522,113.604551,China,CN,Shanxi,minor,,
Gantang,30.296944,118.130556,China,CN,Anhui,minor,,
Gulang,37.466575,102.894281,China,CN,Gansu,minor,,
Hengzhou,22.688621,109.265892,China,CN,Guangxi,minor,,
Longquan,36.117364,113.185709,China,CN,Shanxi,minor,,
Longshan,24.600891,98.704185,China,CN,Yunnan,minor,,
Nanjie,41.017943,119.052235,China,CN,Liaoning,minor,,
Yancheng Chengguanzhen,33.584722,113.986667,China,CN,Henan,minor,,
Yancheng,36.799444,116.743889,China,CN,Shandong,minor,,
Yancheng,33.357503,120.157296,China,CN,Jiangsu,minor,,
Dongfeng,42.640309,125.511762,China,CN,Jilin,minor,,
Zhedao,24.819342,98.27627,China,CN,Yunnan,minor,,
Erqu,34.152778,108.206389,China,CN,Shaanxi,minor,,
Fengshan,30.88712,115.420906,China,CN,Hubei,minor,,
Fengshan,24.583333,99.9,China,CN,Yunnan,minor,,
Fengshan,26.485556,119.549167,China,CN,Fujian,minor,,
Menghai,21.953224,100.384087,China,CN,Yunnan,minor,,
Zhongcun,27.798054,100.205368,China,CN,Yunnan,minor,,
Yumen,40.283333,97.2,China,CN,Gansu,minor,,
Bada,24.592975,105.093244,China,CN,Guangxi,minor,,
Quanjiang,26.309555,114.512924,China,CN,Jiangxi,minor,,
Yuelai,47.023246,130.712963,China,CN,Heilongjiang,minor,,
Qingyuan,37.617478,112.325826,China,CN,Shanxi,minor,,
Xicheng,35.246156,115.433357,China,CN,Shandong,minor,,
Leli,24.354055,106.243695,China,CN,Guangxi,minor,,
Luxu,23.221171,108.802985,China,CN,Guangxi,minor,,
Lin’an,30.235833,119.718056,China,CN,Zhejiang,minor,,
Xinhua,23.6431,105.653167,China,CN,Yunnan,minor,,
Xinhua,26.888378,102.933244,China,CN,Yunnan,minor,,
Huangpi,30.884534,114.377886,China,CN,Hubei,minor,,
Cuihua,27.737658,103.857385,China,CN,Yunnan,minor,,
Zhuozishan,40.899167,112.560278,China,CN,Inner Mongolia,minor,,
Taohong,27.101071,110.994859,China,CN,Hunan,minor,,
Fengcheng,26.197222,119.539167,China,CN,Fujian,minor,,
Dizhuang,33.564519,114.069652,China,CN,Henan,minor,,
Xinzheng,31.27491,106.28714,China,CN,Sichuan,minor,,
Dahua,23.767981,107.984101,China,CN,Guangxi,minor,,
Yuecheng,28.122911,120.960686,China,CN,Zhejiang,minor,,
Lianshan,40.764317,120.85327,China,CN,Liaoning,minor,,
Xinjing,23.202524,106.382069,China,CN,Guangxi,minor,,
Xushan,30.176405,121.245702,China,CN,Zhejiang,minor,,
Tianjiao,39.825532,109.999529,China,CN,Inner Mongolia,minor,,
Bieligutai,44.030303,114.980357,China,CN,Inner Mongolia,minor,,
Bala Ga’er Gaole,44.591492,117.623696,China,CN,Inner Mongolia,minor,,
Zhangjiajie,29.129444,110.478333,China,CN,Hunan,minor,,
Zhoukou,31.034725,106.401131,China,CN,Sichuan,minor,,
Changhanchi,41.761687,119.440176,China,CN,Liaoning,minor,,
Yanta,36.241111,115.667222,China,CN,Shandong,minor,,
Yan’an Beilu,44.007817,87.30461,China,CN,Xinjiang,minor,,
Tangdukou,26.965893,111.241376,China,CN,Hunan,minor,,
Penglai,30.582174,105.251412,China,CN,Sichuan,minor,,
Tongle,24.847568,106.576396,China,CN,Guangxi,minor,,
Mingyue,43.106944,128.921667,China,CN,Jilin,minor,,
Tianpeng,30.986641,103.939333,China,CN,Sichuan,minor,,
Xiaoshan,30.167456,120.258831,China,CN,Zhejiang,minor,,
Saihan Tal,42.735833,112.651389,China,CN,Inner Mongolia,minor,,
Sêraitang,32.935187,100.737568,China,CN,Qinghai,minor,,
Mingxing,37.426389,112.544167,China,CN,Shanxi,minor,,
Xiangcheng Chengguanzhen,33.847033,113.477796,China,CN,Henan,minor,,
Maoshanjie,25.667761,102.49906,China,CN,Yunnan,minor,,
Yangshe,31.868368,120.541324,China,CN,Jiangsu,minor,,
Hanji,35.495436,102.992604,China,CN,Gansu,minor,,
Mingfeng,31.061667,111.642778,China,CN,Hubei,minor,,
Yining,29.036139,114.563618,China,CN,Jiangxi,minor,,
Taixing,32.166667,120.013611,China,CN,Jiangsu,minor,,
Pumiao,22.758671,108.48111,China,CN,Guangxi,minor,,
Wucheng,31.283698,117.901931,China,CN,Anhui,minor,,
Tungdor,29.2,94.083333,China,CN,Tibet,minor,,
Tuncheng,19.363333,110.097778,China,CN,Hainan,minor,,
Dingcheng,19.679143,110.362312,China,CN,Hainan,minor,,
Aksu,41.184178,80.279205,China,CN,Xinjiang,minor,,
Uchturpan,41.151667,79.225,China,CN,Xinjiang,minor,,
Shinan,22.743897,109.874282,China,CN,Guangxi,minor,,
Fancheng,39.189918,113.264014,China,CN,Shanxi,minor,,
Beijie,36.716226,115.159491,China,CN,Hebei,minor,,
Chensan,36.736674,115.134322,China,CN,Hebei,minor,,
Ningzhou,24.1877,102.917,China,CN,Yunnan,minor,,
Meishan,34.161667,112.829722,China,CN,Henan,minor,,
Yixing,37.337599,113.539256,China,CN,Shanxi,minor,,
Wenlin,29.998141,104.139915,China,CN,Sichuan,minor,,
Hehai,31.829212,119.977802,China,CN,Jiangsu,minor,,
Damatou,28.617514,112.336945,China,CN,Hunan,minor,,
Dongshan,31.955679,118.832691,China,CN,Jiangsu,minor,,
Dongshan,25.793889,114.542563,China,CN,Jiangxi,minor,,
Youxi Chengguanzhen,26.173611,118.178889,China,CN,Fujian,minor,,
Mashan,45.205083,130.526144,China,CN,Heilongjiang,minor,,
Ganzhou,25.846642,114.932595,China,CN,Jiangxi,minor,,
Nada,19.522574,109.578598,China,CN,Hainan,minor,,
Fengcheng,37.432778,112.023333,China,CN,Shanxi,minor,,
Yisa,23.332314,102.447111,China,CN,Yunnan,minor,,
Wenshang,35.728413,116.491181,China,CN,Shandong,minor,,
Yuegai,34.129082,95.800068,China,CN,Qinghai,minor,,
Luoxiong,24.885584,104.292254,China,CN,Yunnan,minor,,
Jijiang,29.289931,106.250008,China,CN,Chongqing,minor,,
Zhongshanlu,29.356946,105.90435,China,CN,Chongqing,minor,,
Xiaoduchuan,30.291134,109.476159,China,CN,Hubei,minor,,
Zhongba,27.954256,105.040384,China,CN,Yunnan,minor,,
Dongcheng,28.647302,121.27106,China,CN,Zhejiang,minor,,
Yunhe,26.524966,100.197802,China,CN,Yunnan,minor,,
Yunfu,22.928325,112.039539,China,CN,Guangdong,minor,,
Biancheng,40.678519,122.362331,China,CN,Liaoning,minor,,
Sanyuan Chengguanzhen,34.614722,108.928333,China,CN,Shaanxi,minor,,
Bao’an,36.828988,108.75814,China,CN,Shaanxi,minor,,
Leiyang,26.402382,112.859078,China,CN,Hunan,minor,,
Beilun,29.919167,121.837778,China,CN,Zhejiang,minor,,
Shanhu,29.595833,120.816667,China,CN,Zhejiang,minor,,
Jingzhou,37.688678,116.259581,China,CN,Hebei,minor,,
Jingchuan,30.68916,118.404306,China,CN,Anhui,minor,,
Xiluodu,28.244246,103.638491,China,CN,Yunnan,minor,,
Liucheng,30.7,103.837711,China,CN,Sichuan,minor,,
Fengcheng,25.056967,118.182895,China,CN,Fujian,minor,,
Wuqi,36.926314,108.171713,China,CN,Shaanxi,minor,,
Zhuolu,40.369444,115.216111,China,CN,Hebei,minor,,
Fengcheng,24.723647,116.724286,China,CN,Fujian,minor,,
Qumodê,32.200763,79.184467,China,CN,Tibet,minor,,
Hanbin,32.889722,108.904444,China,CN,Shaanxi,minor,,
Weiyang,34.290597,108.935543,China,CN,Shaanxi,minor,,
Hexi,21.686511,110.634166,China,CN,Guangdong,minor,,
Kaji,26.028488,102.788844,China,CN,Yunnan,minor,,
Xinlin,51.7,124.333333,China,CN,Heilongjiang,minor,,
Xinling,31.025301,110.318159,China,CN,Hubei,minor,,
Echeng,38.374443,111.971665,China,CN,Shanxi,minor,,
Qiancheng,27.185012,109.765432,China,CN,Hunan,minor,,
Saziba,25.867261,102.618539,China,CN,Yunnan,minor,,
Heping,46.086257,122.077083,China,CN,Inner Mongolia,minor,,
Gaoping,30.775757,106.102938,China,CN,Sichuan,minor,,
Yancheng,38.915376,111.869282,China,CN,Shanxi,minor,,
Tiantan,35.966111,111.841667,China,CN,Shanxi,minor,,
Qingyang,37.495833,121.258056,China,CN,Shandong,minor,,
Zhujiacun,26.320406,104.395712,China,CN,Yunnan,minor,,
Inder,46.7,122.933333,China,CN,Inner Mongolia,minor,,
Jinshi,26.41796,110.800169,China,CN,Hunan,minor,,
Liuxiang,37.871431,112.560535,China,CN,Shanxi,minor,,
Julun,37.907395,112.557744,China,CN,Shanxi,minor,,
Qianfeng,37.849424,112.520815,China,CN,Shanxi,minor,,
Mingshui,47.181499,125.900272,China,CN,Heilongjiang,minor,,
Tianshan,43.887365,120.093356,China,CN,Inner Mongolia,minor,,
Zhongcheng,28.59103,103.939579,China,CN,Yunnan,minor,,
Shaoyang,32.929583,119.835758,China,CN,Jiangsu,minor,,
Chunxi,31.327686,118.87489,China,CN,Jiangsu,minor,,
Xiaoshi,41.297111,124.120918,China,CN,Liaoning,minor,,
Sa’gya,28.916667,88.05,China,CN,Tibet,minor,,
Ghulja,43.963511,81.522132,China,CN,Xinjiang,minor,,
E’zhou,30.396072,114.886546,China,CN,Hubei,minor,,
Wuchang,44.914282,127.150007,China,CN,Heilongjiang,minor,,
Luzhai,24.497539,109.733146,China,CN,Guangxi,minor,,
Longquan,30.561297,104.268932,China,CN,Sichuan,minor,,
Miaodong,41.280728,119.435532,China,CN,Liaoning,minor,,
Fendou,46.641422,124.862833,China,CN,Heilongjiang,minor,,
Yinggen,19.038333,109.84,China,CN,Hainan,minor,,
Togrog Ul,40.7867,113.205,China,CN,Inner Mongolia,minor,,
Shanhe,35.484361,108.363982,China,CN,Gansu,minor,,
Yuanzhou,27.798464,114.376078,China,CN,Jiangxi,minor,,
Huangyuan Chengguanzhen,36.687488,101.270844,China,CN,Qinghai,minor,,
Pan’an,29.05368,120.437579,China,CN,Zhejiang,minor,,
Panlian,26.887777,102.108356,China,CN,Sichuan,minor,,
Fenyi,27.811166,114.668047,China,CN,Jiangxi,minor,,
Yangpu,31.261927,121.519037,China,CN,Shanghai,minor,,
Aoxi,27.425889,115.836427,China,CN,Jiangxi,minor,,
Aoyang,28.23896,114.920814,China,CN,Jiangxi,minor,,
Daxing,27.263693,100.863871,China,CN,Yunnan,minor,,
Huludao,40.752425,120.835524,China,CN,Liaoning,minor,,
Xinli,39.844167,108.734722,China,CN,Inner Mongolia,minor,,
Lhünzê,28.412189,92.461706,China,CN,Tibet,minor,,
Liancheng,24.05192,105.074969,China,CN,Yunnan,minor,,
Lijiang,23.571097,102.004166,China,CN,Yunnan,minor,,
Langjiu,32.359478,80.426797,China,CN,Tibet,minor,,
Yilan,46.316182,129.554546,China,CN,Heilongjiang,minor,,
Dingcheng,29.019372,111.679761,China,CN,Hunan,minor,,
Liquan Chengguanzhen,34.481111,108.423611,China,CN,Shaanxi,minor,,
Zhaxi,27.850811,104.968739,China,CN,Yunnan,minor,,
Shiziba,27.979619,104.180586,China,CN,Yunnan,minor,,
Xihuachi,35.816389,108.0125,China,CN,Gansu,minor,,
Hongjunlu,45.303468,130.975958,China,CN,Heilongjiang,minor,,
Gufu,31.362079,110.729184,China,CN,Hubei,minor,,
Ji’an,27.117158,114.979267,China,CN,Jiangxi,minor,,
Ji’an,41.123485,126.176307,China,CN,Jilin,minor,,
Maytagh,44.333333,84.85,China,CN,Xinjiang,minor,,
Jian’ou,27.046944,118.325278,China,CN,Fujian,minor,,
Hanyin Chengguanzhen,32.891389,108.504722,China,CN,Shaanxi,minor,,
Hanyuan,34.010833,105.291944,China,CN,Gansu,minor,,
Yancheng,29.650681,104.067234,China,CN,Sichuan,minor,,
Jingyang,30.291944,118.5425,China,CN,Anhui,minor,,
Jingyang,32.516667,107.883333,China,CN,Shaanxi,minor,,
Gyangkar,28.4,87.8,China,CN,Tibet,minor,,
Bama,24.170541,107.248919,China,CN,Guangxi,minor,,
Wusong,30.95,117.783333,China,CN,Anhui,minor,,
Yuxi,28.889,107.594,China,CN,Guizhou,minor,,
Juegang,32.31737,121.185525,China,CN,Jiangsu,minor,,
Yueyang,30.102297,105.333372,China,CN,Sichuan,minor,,
Yueyang,36.289603,111.914535,China,CN,Shanxi,minor,,
Mori,43.824423,90.194758,China,CN,Xinjiang,minor,,
Fusong,42.325048,127.27265,China,CN,Jilin,minor,,
Shangguan,39.069009,112.929129,China,CN,Shanxi,minor,,
Daiyue,39.520379,112.816844,China,CN,Shanxi,minor,,
Yingchuan,34.162778,113.463889,China,CN,Henan,minor,,
Bayinbaolige,41.091389,107.066389,China,CN,Inner Mongolia,minor,,
Jingshan,39.925278,116.404109,China,CN,Beijing,minor,,
Shedian,33.061278,112.94259,China,CN,Henan,minor,,
Maoping,30.829722,110.977778,China,CN,Hubei,minor,,
Dongqu,37.920205,112.200184,China,CN,Shanxi,minor,,
Baima,30.057524,96.918523,China,CN,Tibet,minor,,
Qingquan,30.45113,115.255931,China,CN,Hubei,minor,,
Suicheng,26.837787,116.835919,China,CN,Fujian,minor,,
Chengxiang,24.746362,114.52491,China,CN,Jiangxi,minor,,
Lüeyang Chengguanzhen,33.332045,106.154956,China,CN,Shaanxi,minor,,
Zhecheng Chengguanzhen,34.104597,115.317604,China,CN,Henan,minor,,
Jinta,39.983333,98.866667,China,CN,Gansu,minor,,
Shuigou’ao,27.11913,103.35337,China,CN,Yunnan,minor,,
Wufeng,27.45,104.833333,China,CN,Yunnan,minor,,
Yanjing,27.426986,101.509675,China,CN,Sichuan,minor,,
Shishi,24.740383,118.629061,China,CN,Fujian,minor,,
Ning’er,23.040533,101.036834,China,CN,Yunnan,minor,,
Ninghai,29.289167,121.424722,China,CN,Zhejiang,minor,,
Chunhua,34.798889,108.575,China,CN,Shaanxi,minor,,
Xianshuigu,38.985,117.382778,China,CN,Tianjin,minor,,
Jiaocheng,24.657319,116.167091,China,CN,Guangdong,minor,,
Xinchenglu,31.388639,121.263053,China,CN,Shanghai,minor,,
Puyang,35.763182,115.017213,China,CN,Henan,minor,,
Chaoge,35.605,114.188611,China,CN,Henan,minor,,
Bujie,28.033518,105.055699,China,CN,Yunnan,minor,,
Wulaocun,32.034371,118.795754,China,CN,Jiangsu,minor,,
Luanping,40.916667,117.283333,China,CN,Hebei,minor,,
Xinshiba,28.970911,102.771265,China,CN,Sichuan,minor,,
Xing’an,47.246296,130.220376,China,CN,Heilongjiang,minor,,
Taipingdian,28.559255,104.222027,China,CN,Yunnan,minor,,
Xianghu,25.8,116.0,China,CN,Jiangxi,minor,,
Datong,46.033759,124.810644,China,CN,Heilongjiang,minor,,
Mengdong,23.161522,99.202263,China,CN,Yunnan,minor,,
Kouquan,39.9982,113.145,China,CN,Shanxi,minor,,
Kouqian,43.639137,126.457835,China,CN,Jilin,minor,,
Shirong,29.350923,102.652481,China,CN,Sichuan,minor,,
Zhongzhan,35.241389,113.160278,China,CN,Henan,minor,,
Xiashi,30.536294,120.686384,China,CN,Zhejiang,minor,,
Ziyang,29.249722,117.854722,China,CN,Jiangxi,minor,,
Huohua,30.758999,106.059358,China,CN,Sichuan,minor,,
Wufeng,30.200001,110.690812,China,CN,Hubei,minor,,
Jinchuan,31.47551,102.058838,China,CN,Sichuan,minor,,
Jinchuan,27.760358,115.388502,China,CN,Jiangxi,minor,,
Hoh Ereg,41.095556,111.440833,China,CN,Inner Mongolia,minor,,
Zhaoren,35.206667,107.791389,China,CN,Shaanxi,minor,,
Huichang,25.600737,115.777955,China,CN,Jiangxi,minor,,
Xindu,30.82236,104.157421,China,CN,Sichuan,minor,,
Yatou,37.156603,122.437623,China,CN,Shandong,minor,,
Yisuhe,27.765437,112.92683,China,CN,Hunan,minor,,
Dianga,34.063627,103.213582,China,CN,Gansu,minor,,
Baochang,41.884444,115.278889,China,CN,Inner Mongolia,minor,,
Taiping,28.368766,121.36171,China,CN,Zhejiang,minor,,
Gushi Chengguanzhen,32.162076,115.669887,China,CN,Henan,minor,,
Hanchang,28.7,113.583333,China,CN,Hunan,minor,,
Dazhou,31.215921,107.500922,China,CN,Sichuan,minor,,
Xi Xian Chengguanzhen,32.343611,114.729444,China,CN,Henan,minor,,
Jimsar,43.983333,89.066667,China,CN,Xinjiang,minor,,
Lishi,24.804591,115.033252,China,CN,Jiangxi,minor,,
Jinxiu,24.137208,110.180091,China,CN,Guangxi,minor,,
Gaocheng,29.988143,100.269403,China,CN,Sichuan,minor,,
Long’an,32.409336,104.528684,China,CN,Sichuan,minor,,
Long’an Chengxiangzhen,23.207117,107.650901,China,CN,Guangxi,minor,,
Dengzhou,37.808222,120.759083,China,CN,Shandong,minor,,
Gaotangling,28.366667,112.816667,China,CN,Hunan,minor,,
Yongchang,31.665742,104.437265,China,CN,Sichuan,minor,,
Guishan,24.05027,102.000181,China,CN,Yunnan,minor,,
Xiangjiaba,28.632664,104.404159,China,CN,Yunnan,minor,,
Babao,38.180556,100.240278,China,CN,Qinghai,minor,,
Guozhen,34.365907,107.359045,China,CN,Shaanxi,minor,,
Ma’erkang,31.901964,102.220684,China,CN,Sichuan,minor,,
Luwan,31.209083,121.463354,China,CN,Shanghai,minor,,
Xiushan,24.109992,102.761531,China,CN,Yunnan,minor,,
Nanma,36.18478,118.15486,China,CN,Shandong,minor,,
Congdü,28.15,85.966667,China,CN,Tibet,minor,,
Naxi,28.77422,105.36488,China,CN,Sichuan,minor,,
Xinxing,47.154674,123.809867,China,CN,Heilongjiang,minor,,
Xinglongchang,28.266327,104.389047,China,CN,Yunnan,minor,,
Zijinglu,34.76,112.971389,China,CN,Henan,minor,,
Ganhechen,33.5582,114.02,China,CN,Henan,minor,,
Huanfeng,31.716667,118.1,China,CN,Anhui,minor,,
Hong’an Chengguanzhen,31.362075,114.63689,China,CN,Hubei,minor,,
Khutubi,44.190348,86.885212,China,CN,Xinjiang,minor,,
Xiannü,32.428065,119.560478,China,CN,Jiangsu,minor,,
Jingning Chengguanzhen,35.52036,105.723012,China,CN,Gansu,minor,,
Jiangkou,23.439158,111.497401,China,CN,Guangdong,minor,,
Xinji,31.6232,114.874,China,CN,Henan,minor,,
Guang’an,30.474126,106.636959,China,CN,Sichuan,minor,,
Sêrkang,32.216667,92.116667,China,CN,Tibet,minor,,
Nanzhang Chengguanzhen,31.783941,111.827518,China,CN,Hubei,minor,,
Beiyingzi,40.760693,119.117863,China,CN,Liaoning,minor,,
Baiyin Chagan,41.453333,113.183333,China,CN,Inner Mongolia,minor,,
Dawangzhuang,39.127029,117.216184,China,CN,Tianjin,minor,,
Dayingmen,39.107338,117.209584,China,CN,Tianjin,minor,,
Linjiang,36.3275,112.881944,China,CN,Shanxi,minor,,
Taiqian Chengguanzhen,35.99102,115.853231,China,CN,Henan,minor,,
Jiecun,27.355722,102.98271,China,CN,Yunnan,minor,,
Sui’an,24.086982,117.60912,China,CN,Fujian,minor,,
Huzhong,51.95,123.666667,China,CN,Heilongjiang,minor,,
Shiguai,40.705833,110.285556,China,CN,Inner Mongolia,minor,,
Ningnan,31.985041,118.781471,China,CN,Jiangsu,minor,,
Bengshutang,28.036641,99.508353,China,CN,Yunnan,minor,,
Aba,32.905943,101.706251,China,CN,Sichuan,minor,,
Chenggan,26.145431,102.803007,China,CN,Yunnan,minor,,
Ningjin,37.649849,116.793282,China,CN,Shandong,minor,,
Jianghai,22.575183,113.119045,China,CN,Guangdong,minor,,
Dayu,39.937499,116.096686,China,CN,Beijing,minor,,
Doucun,34.748085,109.179676,China,CN,Shaanxi,minor,,
Salaqi,40.541389,110.510833,China,CN,Inner Mongolia,minor,,
Jiaokui,27.594143,104.004778,China,CN,Yunnan,minor,,
Nanjie,23.634137,112.434781,China,CN,Guangdong,minor,,
Fengqiu Chengguanzhen,35.029167,114.413056,China,CN,Henan,minor,,
Geluwan,27.373738,99.656073,China,CN,Yunnan,minor,,
Xiling,30.71606,111.283903,China,CN,Hubei,minor,,
Puji,27.380189,102.541263,China,CN,Sichuan,minor,,
Jiaxiang,35.396058,116.348001,China,CN,Shandong,minor,,
Luanzhou,39.75,118.733333,China,CN,Hebei,minor,,
Chenghua,23.461319,116.770071,China,CN,Guangdong,minor,,
Pagnag,32.269858,91.681006,China,CN,Tibet,minor,,
Pagqên,33.968645,99.900974,China,CN,Qinghai,minor,,
Ningxiang,37.34,111.205227,China,CN,Shanxi,minor,,
Mengcheng Chengguanzhen,33.266109,116.566052,China,CN,Anhui,minor,,
Duohu,29.093696,119.685107,China,CN,Zhejiang,minor,,
Moluo,30.803923,98.10038,China,CN,Tibet,minor,,
Wuyun,28.653885,120.066934,China,CN,Zhejiang,minor,,
Wuyuan,30.515387,120.948562,China,CN,Zhejiang,minor,,
Xinzhou,24.872345,105.351169,China,CN,Guangxi,minor,,
Xiangzhou,23.972824,109.666778,China,CN,Guangxi,minor,,
Shuiying,27.810134,104.798397,China,CN,Yunnan,minor,,
Lhünzhub,30.201,91.301,China,CN,Tibet,minor,,
Hezuo,34.985556,102.909444,China,CN,Gansu,minor,,
Chengzhong,29.106444,119.648553,China,CN,Zhejiang,minor,,
Tuanfeng,30.713606,114.91613,China,CN,Hubei,minor,,
Yishi,35.164972,110.745979,China,CN,Shanxi,minor,,
Yishan,34.299444,119.254167,China,CN,Jiangsu,minor,,
Songmai,28.714706,99.286325,China,CN,Sichuan,minor,,
Songlong,31.162399,120.6384,China,CN,Jiangsu,minor,,
Yuanhe,31.399291,120.614446,China,CN,Jiangsu,minor,,
Hongliuwan,39.63187,94.336939,China,CN,Gansu,minor,,
Meilisi,47.314988,123.754418,China,CN,Heilongjiang,minor,,
Kalpin,40.52755,79.06577,China,CN,Xinjiang,minor,,
Lintan Chengguanzhen,34.68885,103.352424,China,CN,Gansu,minor,,
Shuangqiao,35.09,112.58,China,CN,Henan,minor,,
Nansha,23.180369,102.8333,China,CN,Yunnan,minor,,
Chengguan,39.907222,111.673333,China,CN,Inner Mongolia,minor,,
Qingyuan,28.117203,112.998463,China,CN,Hunan,minor,,
Nancheng,36.948611,115.997778,China,CN,Shandong,minor,,
Longquan,36.695249,110.95564,China,CN,Shanxi,minor,,
Xixiang,32.987028,107.763996,China,CN,Shaanxi,minor,,
Lintong,34.378027,109.208925,China,CN,Shaanxi,minor,,
Shouxihu,32.420892,119.404354,China,CN,Jiangsu,minor,,
Dahuaishu,36.265556,111.675278,China,CN,Shanxi,minor,,
Bagrax,41.984335,86.621985,China,CN,Xinjiang,minor,,
Baicheng,23.899722,106.613333,China,CN,Guangxi,minor,,
Xiaohebian,27.727632,103.995138,China,CN,Yunnan,minor,,
Huanggexi,27.854143,103.861054,China,CN,Yunnan,minor,,
Yuelejie,27.826934,103.783072,China,CN,Yunnan,minor,,
Bencheng,39.5,118.7,China,CN,Hebei,minor,,
Baiguan,30.032506,120.859955,China,CN,Zhejiang,minor,,
Huazhou,32.682222,112.081944,China,CN,Henan,minor,,
Gengqing,31.816489,98.595791,China,CN,Sichuan,minor,,
Huangzhai,38.075136,112.659459,China,CN,Shanxi,minor,,
Guixi,30.333551,107.345446,China,CN,Chongqing,minor,,
Caidian,30.583333,114.033333,China,CN,Hubei,minor,,
Changde,29.046378,111.678304,China,CN,Hunan,minor,,
Xi’an,34.258333,108.928611,China,CN,Shaanxi,admin,,
Xiugu,27.911318,116.77637,China,CN,Jiangxi,minor,,
Coka,30.9054,94.6695,China,CN,Tibet,minor,,
Xindou,31.396484,100.678469,China,CN,Sichuan,minor,,
Zhangjiapan,37.601569,108.797024,China,CN,Shaanxi,minor,,
Samdo,31.2143,96.5994,China,CN,Tibet,minor,,
Huanan,46.2207,130.525,China,CN,Heilongjiang,minor,,
Hechuan,26.936125,114.227784,China,CN,Jiangxi,minor,,
Yanling,29.530646,104.661081,China,CN,Sichuan,minor,,
Xuefeng,26.357222,117.197778,China,CN,Fujian,minor,,
Qasq,40.712222,111.128889,China,CN,Inner Mongolia,minor,,
Luoyang,27.561389,119.711389,China,CN,Zhejiang,minor,,
Shangdu,42.250045,116.007975,China,CN,Inner Mongolia,minor,,
Daishan,30.245885,122.198952,China,CN,Zhejiang,minor,,
Hekou,37.884645,118.526641,China,CN,Shandong,minor,,
Yiyang Chengguanzhen,34.510833,112.162222,China,CN,Henan,minor,,
Dongcheng,33.412347,115.080908,China,CN,Henan,minor,,
Zhongshan,22.523058,113.379122,China,CN,Guangdong,minor,,
Zhadün,29.65,84.166667,China,CN,Tibet,minor,,
Sanhe,29.868641,107.730266,China,CN,Chongqing,minor,,
Rutog,33.384228,79.729824,China,CN,Tibet,minor,,
Youyi,46.804848,130.319219,China,CN,Heilongjiang,minor,,
Haliut,41.556111,108.519722,China,CN,Inner Mongolia,minor,,
Lianran,24.922707,102.484959,China,CN,Yunnan,minor,,
Baiyu,28.576627,99.672016,China,CN,Yunnan,minor,,
Shuijia,27.488088,100.06321,China,CN,Yunnan,minor,,
Puyang Chengguanzhen,35.705058,115.014086,China,CN,Henan,minor,,
Jincheng,30.997115,105.881911,China,CN,Sichuan,minor,,
Jincheng,25.501468,102.400584,China,CN,Yunnan,minor,,
Zhaoping,24.172435,110.787031,China,CN,Guangxi,minor,,
Shoushan,34.277714,107.746192,China,CN,Shaanxi,minor,,
Dingping,30.338622,106.926995,China,CN,Sichuan,minor,,
Qianzhou,28.319255,109.733458,China,CN,Hunan,minor,,
Acheng,45.545452,126.977031,China,CN,Heilongjiang,minor,,
Qincheng,34.580278,105.727222,China,CN,Gansu,minor,,
Tiantai Chengguanzhen,29.136327,121.02958,China,CN,Zhejiang,minor,,
Ningling Chengguanzhen,34.45,115.316667,China,CN,Henan,minor,,
Ningjin,36.9863,122.502,China,CN,Shandong,minor,,
Lianjiang,22.590178,113.076419,China,CN,Guangdong,minor,,
Chumba,29.083333,92.6,China,CN,Tibet,minor,,
Changsha,22.381245,112.684921,China,CN,Guangdong,minor,,
Nankengzai,26.283333,117.883333,China,CN,Fujian,minor,,
Dongmen,24.791982,108.900002,China,CN,Guangxi,minor,,
Yanshi Chengguanzhen,34.71601,112.795677,China,CN,Henan,minor,,
Yuyue,30.018199,113.963247,China,CN,Hubei,minor,,
Tiancheng,29.540217,114.041547,China,CN,Hubei,minor,,
Tianchang,32.684971,119.009321,China,CN,Anhui,minor,,
Xireg,36.918657,98.444627,China,CN,Qinghai,minor,,
Fuyang,30.053333,119.951944,China,CN,Zhejiang,minor,,
Guanghe Chengguanzhen,35.481533,103.576044,China,CN,Gansu,minor,,
Rongwo,35.51483,102.015999,China,CN,Qinghai,minor,,
Shicheng,27.106706,119.334993,China,CN,Fujian,minor,,
Lubei,44.608659,120.955603,China,CN,Inner Mongolia,minor,,
Chengfangqiao,25.757251,103.831042,China,CN,Yunnan,minor,,
Yizhang Chengguanzhen,25.383227,112.978969,China,CN,Hunan,minor,,
Shiqiao,22.946399,113.357688,China,CN,Guangdong,minor,,
Kuaidamao,41.655323,125.742248,China,CN,Jilin,minor,,
Chenying,28.692901,117.067316,China,CN,Jiangxi,minor,,
Jiangyan,32.506111,120.142778,China,CN,Jiangsu,minor,,
Wujin,30.411309,103.813016,China,CN,Sichuan,minor,,
Xinglong,40.420278,117.5075,China,CN,Hebei,minor,,
Jinding,26.439027,99.440606,China,CN,Yunnan,minor,,
Meixian,24.283815,116.069533,China,CN,Guangdong,minor,,
Lingchuan,25.409511,110.322777,China,CN,Guangxi,minor,,
Wanzhi,31.146871,118.567083,China,CN,Anhui,minor,,
Gaolan Chengguanzhen,36.334669,103.945559,China,CN,Gansu,minor,,
Batang,30.006563,99.107236,China,CN,Sichuan,minor,,
Shishan,31.298826,120.565155,China,CN,Jiangsu,minor,,
Shuangta,31.304077,120.629678,China,CN,Jiangsu,minor,,
Pingjianglu,31.314688,120.629785,China,CN,Jiangsu,minor,,
Nirji,48.483333,124.483333,China,CN,Inner Mongolia,minor,,
Qiaoshang,27.942737,105.164845,China,CN,Yunnan,minor,,
Hanshang,32.377438,119.393021,China,CN,Jiangsu,minor,,
Gaocun,27.877306,109.784755,China,CN,Hunan,minor,,
Loushanguan,28.1368,106.822,China,CN,Guizhou,minor,,
Danfeng,24.83054,104.008195,China,CN,Yunnan,minor,,
Yaozhou,34.905278,108.97,China,CN,Shaanxi,minor,,
Tiexi,47.311866,130.280271,China,CN,Heilongjiang,minor,,
Ehen Hudag,39.2,101.666667,China,CN,Inner Mongolia,minor,,
Jiulong,30.53622,106.43713,China,CN,Sichuan,minor,,
Xingsha,28.239722,113.087778,China,CN,Hunan,minor,,
Songbai,31.756848,110.672517,China,CN,Hubei,minor,,
Yong’an,39.695712,113.687079,China,CN,Shanxi,minor,,
Qiaotou,36.935,101.673611,China,CN,Qinghai,minor,,
Gulin,28.042232,105.810378,China,CN,Sichuan,minor,,
Lucheng,31.233572,117.280566,China,CN,Anhui,minor,,
Zhushan Chengguanzhen,32.221786,110.236138,China,CN,Hubei,minor,,
Linwu Chengguanzhen,25.23247,112.539812,China,CN,Hunan,minor,,
Funan Chengguanzhen,32.636781,115.614943,China,CN,Anhui,minor,,
Aoyang,27.458889,119.501389,China,CN,Fujian,minor,,
Si’en,24.841981,108.271622,China,CN,Guangxi,minor,,
Shuizhulin,27.944491,103.674421,China,CN,Yunnan,minor,,
Dailing,47.023889,129.019035,China,CN,Heilongjiang,minor,,
Chengguan,35.309353,115.118811,China,CN,Shandong,minor,,
Yuanyang Chengguanzhen,35.052222,113.963889,China,CN,Henan,minor,,
Nyinma,34.000651,102.071273,China,CN,Gansu,minor,,
Zongga,29.0,85.25,China,CN,Tibet,minor,,
Poskam,38.188669,77.270748,China,CN,Xinjiang,minor,,
Ruyang Chengguanzhen,34.150278,112.458333,China,CN,Henan,minor,,
Tiantang,30.85,116.35,China,CN,Anhui,minor,,
Yuanma,25.681969,101.871999,China,CN,Yunnan,minor,,
Jifeng,35.613467,110.958542,China,CN,Shanxi,minor,,
Zhihe,36.779964,110.639562,China,CN,Shanxi,minor,,
Jibenggang,29.6583,91.1276,China,CN,Tibet,minor,,
Dangquka,30.4859,91.1026,China,CN,Tibet,minor,,
Fenghuang,38.997803,112.297786,China,CN,Shanxi,minor,,
Hanyuan,32.833995,106.250352,China,CN,Shaanxi,minor,,
Huixian Chengguanzhen,33.768333,106.080833,China,CN,Gansu,minor,,
Chengguan,35.458611,113.797778,China,CN,Henan,minor,,
Nankang,29.446542,116.040678,China,CN,Jiangxi,minor,,
Renminlu,36.551198,104.169515,China,CN,Gansu,minor,,
Ailan Mubage,43.908453,81.332995,China,CN,Xinjiang,minor,,
Tianchi,30.28112,105.023461,China,CN,Sichuan,minor,,
Xisa,23.450001,104.707746,China,CN,Yunnan,minor,,
Rongshui,25.066667,109.25,China,CN,Guangxi,minor,,
Wudan,42.934444,119.023889,China,CN,Inner Mongolia,minor,,
Lucheng,30.054261,101.967925,China,CN,Sichuan,minor,,
Longquan,24.671925,102.161303,China,CN,Yunnan,minor,,
Xianyang,34.33778,108.70261,China,CN,Shaanxi,minor,,
Xuri,28.43511,117.919792,China,CN,Jiangxi,minor,,
Xiongzhou,32.343592,118.849862,China,CN,Jiangsu,minor,,
Furong,26.45,114.766667,China,CN,Jiangxi,minor,,
Yichuan Chengguanzhen,34.419722,112.419167,China,CN,Henan,minor,,
Guzhen Chengguanzhen,33.310556,117.310556,China,CN,Anhui,minor,,
Jimai,33.751545,99.648212,China,CN,Qinghai,minor,,
Youxian Chengguanzhen,26.991681,113.360617,China,CN,Hunan,minor,,
Chenyang,28.015815,110.172982,China,CN,Hunan,minor,,
Beijinglu,31.322678,118.385055,China,CN,Anhui,minor,,
Liminlu,31.318845,118.362885,China,CN,Anhui,minor,,
Zhongshan,24.533333,111.3,China,CN,Guangxi,minor,,
Jin’e,29.343129,105.284427,China,CN,Sichuan,minor,,
Minzhu,43.721445,127.334015,China,CN,Jilin,minor,,
Bazhou,31.8557,106.772,China,CN,Sichuan,minor,,
Burang,30.295594,81.175114,China,CN,Tibet,minor,,
Binhe,37.510841,105.184446,China,CN,Ningxia,minor,,
Xiaping,26.731389,114.270278,China,CN,Jiangxi,minor,,
Wuling,39.467988,114.148425,China,CN,Shanxi,minor,,
Kangbao,41.846389,114.613889,China,CN,Hebei,minor,,
Yuli,41.336623,86.256755,China,CN,Xinjiang,minor,,
Jichang,36.101111,110.673333,China,CN,Shanxi,minor,,
Xiaoxita,30.77135,111.321458,China,CN,Hubei,minor,,
Wenquan,34.935278,113.073333,China,CN,Henan,minor,,
Xayar,41.23,82.805833,China,CN,Xinjiang,minor,,
Luqiao,29.932463,102.231631,China,CN,Sichuan,minor,,
Dongguan,39.01732,111.126737,China,CN,Shanxi,minor,,
Daqinglu,34.899274,112.583144,China,CN,Henan,minor,,
Wacheng,33.783333,114.516667,China,CN,Henan,minor,,
Decheng,23.142632,111.777367,China,CN,Guangdong,minor,,
Deqing,30.54485,119.959901,China,CN,Zhejiang,minor,,
Mangqu,35.585697,100.752372,China,CN,Qinghai,minor,,
Xingguo,29.922525,115.302076,China,CN,Hubei,minor,,
Xingguo,34.858611,105.668611,China,CN,Gansu,minor,,
Tubu,29.045323,115.812674,China,CN,Jiangxi,minor,,
Baoshenmiao,40.912099,119.072601,China,CN,Liaoning,minor,,
Qinglong,40.405556,118.943889,China,CN,Hebei,minor,,
Dangchang Chengguanzhen,34.044616,104.394643,China,CN,Gansu,minor,,
Nagqu,31.403,92.003,China,CN,Tibet,minor,,
Awat,40.638369,80.379655,China,CN,Xinjiang,minor,,
Karakax,37.272249,79.737278,China,CN,Xinjiang,minor,,
Shancheng,24.491553,117.34568,China,CN,Fujian,minor,,
Hunchun,42.8675,130.358056,China,CN,Jilin,minor,,
Xing’an,50.247699,127.493234,China,CN,Heilongjiang,minor,,
Qionghu,28.840611,112.373994,China,CN,Hunan,minor,,
Xishaqiao,28.302511,103.984819,China,CN,Yunnan,minor,,
Gaoleshan,29.678254,109.144526,China,CN,Hubei,minor,,
Zhuxi Chengguanzhen,32.325686,109.723369,China,CN,Hubei,minor,,
Linquan,37.979647,111.020587,China,CN,Shanxi,minor,,
Linxia Chengguanzhen,35.600278,103.206389,China,CN,Gansu,minor,,
Kaiyuan,36.068126,113.822086,China,CN,Henan,minor,,
Changning,24.955677,115.642358,China,CN,Jiangxi,minor,,
Youdian,24.828942,99.592317,China,CN,Yunnan,minor,,
Shuihu,32.476667,117.157778,China,CN,Anhui,minor,,
Weishi Chengguanzhen,34.413611,114.187222,China,CN,Henan,minor,,
Xincheng,22.701551,112.224645,China,CN,Guangdong,minor,,
Nangandao,35.19033,113.80151,China,CN,Henan,minor,,
Bishui,32.717861,113.311672,China,CN,Henan,minor,,
Biyang,29.928851,117.946378,China,CN,Anhui,minor,,
Kulun,42.730556,121.775556,China,CN,Inner Mongolia,minor,,
Changping,28.207833,103.85499,China,CN,Yunnan,minor,,
Moshiyi,27.827702,103.72828,China,CN,Yunnan,minor,,
Jingpeng,43.25,117.516667,China,CN,Inner Mongolia,minor,,
Jingping,39.52,112.283889,China,CN,Shanxi,minor,,
Qian’an,44.993243,124.058109,China,CN,Jilin,minor,,
Xinzhai,23.72048,117.148662,China,CN,Fujian,minor,,
Xujiang,26.839445,116.32011,China,CN,Jiangxi,minor,,
Chengbei,40.223033,116.245838,China,CN,Beijing,minor,,
Lindian,47.182583,124.867727,China,CN,Heilongjiang,minor,,
Yopurga,39.23938,76.764317,China,CN,Xinjiang,minor,,
Ngamring,29.233333,87.166667,China,CN,Tibet,minor,,
Domartang,30.93902,94.689083,China,CN,Tibet,minor,,
Yiwu,29.315056,120.076764,China,CN,Zhejiang,minor,,
Taizhou,28.662658,121.433117,China,CN,Zhejiang,minor,,
Haimen,28.68074,121.424075,China,CN,Zhejiang,minor,,
Chengxiang,31.398604,109.622843,China,CN,Chongqing,minor,,
Jiyuanlu,34.8225,113.267222,China,CN,Henan,minor,,
Shangjie,25.671058,99.980246,China,CN,Yunnan,minor,,
Xinjie,28.148531,103.966575,China,CN,Yunnan,minor,,
Qabqa,36.281389,100.613056,China,CN,Qinghai,minor,,
Wuhu,31.337275,118.373509,China,CN,Anhui,minor,,
Wuhe Chengguanzhen,33.1386,117.865817,China,CN,Anhui,minor,,
Jinniu,25.800617,100.574348,China,CN,Yunnan,minor,,
Yinla,29.577302,94.483014,China,CN,Tibet,minor,,
Jinchang,38.498084,112.923603,China,CN,Shanxi,minor,,
Dingxi,35.570882,104.623027,China,CN,Gansu,minor,,
Dingtao,35.074357,115.565815,China,CN,Shandong,minor,,
Nuojiang,31.915617,107.24273,China,CN,Sichuan,minor,,
Zhouqu Chengguanzhen,33.784167,104.362778,China,CN,Gansu,minor,,
Chizhou,30.661338,117.477833,China,CN,Anhui,minor,,
Huili Chengguanzhen,26.662557,102.243916,China,CN,Sichuan,minor,,
Lugu,39.896719,116.220365,China,CN,Beijing,minor,,
Fucheng,37.869132,116.150577,China,CN,Hebei,minor,,
Dongning,44.062188,131.120752,China,CN,Heilongjiang,minor,,
Xiayi Chengguanzhen,34.236803,116.116076,China,CN,Henan,minor,,
Mazhang,21.275737,110.322116,China,CN,Guangdong,minor,,
Gangu Chengguanzhen,34.735642,105.32632,China,CN,Gansu,minor,,
Hongmiao,32.224835,118.919748,China,CN,Jiangsu,minor,,
Xiqu,26.605659,101.598282,China,CN,Sichuan,minor,,
Shilu,19.259838,109.048838,China,CN,Hainan,minor,,
Lumaka,33.086158,80.367838,China,CN,Tibet,minor,,
Yelin,18.520989,110.039701,China,CN,Hainan,minor,,
Fangting,31.127656,104.166487,China,CN,Sichuan,minor,,
Lecheng,25.113712,113.354076,China,CN,Guangdong,minor,,
Nanlong,31.35333,106.06309,China,CN,Sichuan,minor,,
Mengla,21.468588,101.550688,China,CN,Yunnan,minor,,
Dongchuan,25.47655,101.284676,China,CN,Yunnan,minor,,
Xiaqiaotou,27.185338,100.043374,China,CN,Yunnan,minor,,
Yujiazhai,27.841525,104.824913,China,CN,Yunnan,minor,,
Jing’an,22.210718,113.292182,China,CN,Guangdong,minor,,
Xinmatou,36.818025,115.170473,China,CN,Hebei,minor,,
Qujiang,30.842061,106.967848,China,CN,Sichuan,minor,,
Dongping,36.499,117.996,China,CN,Shandong,minor,,
Gujiang,35.493986,111.553343,China,CN,Shanxi,minor,,
Jiaoxiyakou,26.128289,102.450035,China,CN,Yunnan,minor,,
Nong’an,44.381982,125.168469,China,CN,Jilin,minor,,
Zhaoxian,28.70618,115.736166,China,CN,Jiangxi,minor,,
Zhuangyuan,37.305532,120.827467,China,CN,Shandong,minor,,
Yangquan,37.8575,113.563333,China,CN,Shanxi,minor,,
Huayuan,28.588148,109.475782,China,CN,Hunan,minor,,
Huayuan,31.314221,114.01775,China,CN,Hubei,minor,,
Fangcheng Chengguanzhen,33.253217,113.001198,China,CN,Henan,minor,,
Meicheng,30.634492,116.579796,China,CN,Anhui,minor,,
Beijie,39.22264,106.765794,China,CN,Ningxia,minor,,
Kaihua Chengguanzhen,29.145862,118.409028,China,CN,Zhejiang,minor,,
Chengjiao,35.404948,114.060431,China,CN,Henan,minor,,
Chang’an,25.233333,109.383333,China,CN,Guangxi,minor,,
Beidao,34.568611,105.893333,China,CN,Gansu,minor,,
Shunde,22.800869,113.292084,China,CN,Guangdong,minor,,
Dongcun,38.294416,111.703525,China,CN,Shanxi,minor,,
Xiongshan,27.364391,118.857109,China,CN,Fujian,minor,,
Zhize,21.755404,111.614334,China,CN,Guangdong,minor,,
Xin’an,44.580334,129.625725,China,CN,Heilongjiang,minor,,
Muzeng,26.052406,102.479266,China,CN,Yunnan,minor,,
Liyang,31.717717,118.357309,China,CN,Anhui,minor,,
Yanji,33.9653,116.451,China,CN,Henan,minor,,
Langao Chengguanzhen,32.300278,108.893056,China,CN,Shaanxi,minor,,
Xêgar,28.633333,87.083333,China,CN,Tibet,minor,,
Wenquan,47.183333,119.966667,China,CN,Inner Mongolia,minor,,
Dongping,28.380172,111.205859,China,CN,Hunan,minor,,
Haomen,37.361884,101.587101,China,CN,Qinghai,minor,,
Laojie,26.576957,103.046976,China,CN,Yunnan,minor,,
Gunan,29.0231,106.648,China,CN,Chongqing,minor,,
Xiwanzi,40.971389,115.2725,China,CN,Hebei,minor,,
Daqin Tal,42.887189,120.67466,China,CN,Inner Mongolia,minor,,
Chang’an,29.4718,113.444,China,CN,Hunan,minor,,
Jincheng,39.559123,113.185537,China,CN,Shanxi,minor,,
Liangshi,27.206364,111.737145,China,CN,Hunan,minor,,
Gonghe,25.255753,101.518568,China,CN,Yunnan,minor,,
Weinan,34.503546,109.508908,China,CN,Shaanxi,minor,,
Huanghai,37.488699,121.440377,China,CN,Shandong,minor,,
Yuanquan,40.5,95.8,China,CN,Gansu,minor,,
Changning,31.217388,121.421051,China,CN,Shanghai,minor,,
Yiyang,26.388931,112.379247,China,CN,Hunan,minor,,
Changning,28.577725,104.920873,China,CN,Sichuan,minor,,
Baiyin,36.546963,104.17023,China,CN,Gansu,minor,,
Yaohua,32.121517,118.871696,China,CN,Jiangsu,minor,,
E’erguna,50.223621,120.170919,China,CN,Inner Mongolia,minor,,
Labu,24.25985,109.334145,China,CN,Guangxi,minor,,
Labuleng,35.201249,102.521167,China,CN,Gansu,minor,,
Xincun,27.671783,103.869893,China,CN,Yunnan,minor,,
Pengjia Zhaizi,27.608297,103.5271,China,CN,Yunnan,minor,,
Daihai,40.521111,112.493056,China,CN,Inner Mongolia,minor,,
Peyziwat,39.495536,76.742825,China,CN,Xinjiang,minor,,
Zhijin,26.6668,105.768,China,CN,Guizhou,minor,,
Neixiang Chengguanzhen,33.046667,111.843611,China,CN,Henan,minor,,
Chicheng,40.866667,115.833333,China,CN,Hebei,minor,,
Jianxincun,25.838923,104.119515,China,CN,Yunnan,minor,,
Songyang,34.455278,113.028056,China,CN,Henan,minor,,
Yunling,23.953837,117.336035,China,CN,Fujian,minor,,
Ulan,39.093745,107.980219,China,CN,Inner Mongolia,minor,,
Oljoq,38.179789,107.475061,China,CN,Inner Mongolia,minor,,
Chinggil,46.667248,90.378635,China,CN,Xinjiang,minor,,
Lucheng,22.314945,110.256306,China,CN,Guangxi,minor,,
Yongfu,25.004025,109.981848,China,CN,Guangxi,minor,,
Huilong,31.811111,121.655,China,CN,Jiangsu,minor,,
Kongjiazhuang,40.7525,114.726111,China,CN,Hebei,minor,,
Dongdajie,37.926861,102.6343,China,CN,Gansu,minor,,
Liaoyang,37.079769,113.339857,China,CN,Shanxi,minor,,
Huancuilou,37.500412,122.113976,China,CN,Shandong,minor,,
Gaizhou,40.394167,122.368611,China,CN,Liaoning,minor,,
Kambaxoi,28.3,88.533333,China,CN,Tibet,minor,,
Xincheng,33.541944,114.598333,China,CN,Henan,minor,,
Changning,35.979829,110.82211,China,CN,Shanxi,minor,,
Taocheng,25.312304,118.300563,China,CN,Fujian,minor,,
Dawu Chengguanzhen,31.609648,114.118057,China,CN,Hubei,minor,,
Zoumachang,27.871318,105.201048,China,CN,Yunnan,minor,,
Dingcheng,32.516086,117.659516,China,CN,Anhui,minor,,
Huicheng,29.86925,118.433644,China,CN,Anhui,minor,,
Chaoyang,37.908013,113.150438,China,CN,Shanxi,minor,,
Xincheng Chengguanzhen,24.086127,108.65261,China,CN,Guangxi,minor,,
Taikang,46.861347,124.442001,China,CN,Heilongjiang,minor,,
Fangxian Chengguanzhen,32.055,110.734167,China,CN,Hubei,minor,,
Fangzheng,45.838811,128.827572,China,CN,Heilongjiang,minor,,
Dawa,40.993731,122.068042,China,CN,Liaoning,minor,,
Chongshan,18.782291,109.501303,China,CN,Hainan,minor,,
Lixin Chengguanzhen,33.143276,116.227177,China,CN,Anhui,minor,,
Nandan Chengguanzhen,25.010361,107.55712,China,CN,Guangxi,minor,,
Zhangping,25.299722,117.415,China,CN,Fujian,minor,,
Hekou,30.032324,101.005422,China,CN,Sichuan,minor,,
Tanbei,35.088056,112.939444,China,CN,Henan,minor,,
Huazangsi,36.976525,103.13522,China,CN,Gansu,minor,,
Fanyang,31.084706,118.194254,China,CN,Anhui,minor,,
Fucheng,35.3725,103.705556,China,CN,Gansu,minor,,
Kangle,28.095571,114.450072,China,CN,Jiangxi,minor,,
Qingyang,36.207119,113.417208,China,CN,Shanxi,minor,,
Nierong,32.113087,92.295717,China,CN,Hebei,minor,,
Lishu,45.089785,130.691359,China,CN,Heilongjiang,minor,,
Hengdong Chengguanzhen,27.083333,112.95,China,CN,Hunan,minor,,
Chaoyang,42.662228,126.026301,China,CN,Jilin,minor,,
Shuangxi,28.862954,115.35194,China,CN,Jiangxi,minor,,
Dianyang,24.702606,99.159191,China,CN,Yunnan,minor,,
Burqin,47.70594,86.861312,China,CN,Xinjiang,minor,,
Lishu,43.304722,124.327778,China,CN,Jilin,minor,,
Longxing,35.612973,111.219247,China,CN,Shanxi,minor,,
Zhamog,29.866531,95.759028,China,CN,Tibet,minor,,
Gongjiang,25.957348,115.410016,China,CN,Jiangxi,minor,,
Longgang,40.721464,120.925576,China,CN,Liaoning,minor,,
Shuidong,21.513405,111.001837,China,CN,Guangdong,minor,,
Shuitou,36.973061,111.209095,China,CN,Shanxi,minor,,
Shangtianba,28.03123,103.861831,China,CN,Yunnan,minor,,
Xiyuzhuang,39.166306,117.15679,China,CN,Tianjin,minor,,
Urho,46.11651,85.67769,China,CN,Xinjiang,minor,,
Norbukyungzê,29.166667,89.25,China,CN,Tibet,minor,,
Fuyang,24.834413,111.258021,China,CN,Guangxi,minor,,
Mianyang,33.157033,106.694452,China,CN,Shaanxi,minor,,
Jiannan,31.343552,104.195879,China,CN,Sichuan,minor,,
Bofeng,44.158739,87.974184,China,CN,Xinjiang,minor,,
Zuitou,34.06219,107.312657,China,CN,Shaanxi,minor,,
Zuitai,33.330829,105.604672,China,CN,Gansu,minor,,
Zunhua,40.179167,117.958611,China,CN,Hebei,minor,,
Gucheng,28.848561,121.116095,China,CN,Zhejiang,minor,,
Encheng,22.186594,112.304235,China,CN,Guangdong,minor,,
Ming’antu,42.302778,114.993333,China,CN,Inner Mongolia,minor,,
Xinghe Chengguanzhen,40.875556,113.883889,China,CN,Inner Mongolia,minor,,
Pingdu,27.386296,114.610178,China,CN,Jiangxi,minor,,
Tianyi,41.566667,119.333333,China,CN,Inner Mongolia,minor,,
Nilka,43.783333,82.398333,China,CN,Xinjiang,minor,,
Fushi,29.183822,105.001145,China,CN,Sichuan,minor,,
Yunxing,39.999098,112.697869,China,CN,Shanxi,minor,,
Wenquan,30.849283,115.699098,China,CN,Hubei,minor,,
Xiaoxi,24.352493,117.290708,China,CN,Fujian,minor,,
Hai’an,32.543611,120.45,China,CN,Jiangsu,minor,,
Luozhou,21.605888,110.277049,China,CN,Guangdong,minor,,
Gedong,37.893107,111.255435,China,CN,Shanxi,minor,,
Shangtang,28.155409,120.688201,China,CN,Zhejiang,minor,,
Longxian Chengguanzhen,34.907341,106.849655,China,CN,Shaanxi,minor,,
Huayang,31.951648,119.162837,China,CN,Jiangsu,minor,,
Gangou,26.515029,103.147679,China,CN,Yunnan,minor,,
Luogang,23.177887,113.501038,China,CN,Guangdong,minor,,
Longquan,25.901389,112.211667,China,CN,Hunan,minor,,
Yongbei,26.646227,100.780728,China,CN,Yunnan,minor,,
Jinxi,30.432255,116.292174,China,CN,Anhui,minor,,
Wenhe,32.395234,119.426879,China,CN,Jiangsu,minor,,
Xishan,27.666667,113.5,China,CN,Hunan,minor,,
Meixing,30.999072,102.360185,China,CN,Sichuan,minor,,
Meixi,47.631701,129.13064,China,CN,Heilongjiang,minor,,
Chaoyang,48.886375,130.403228,China,CN,Heilongjiang,minor,,
Wencheng,19.615701,110.748936,China,CN,Hainan,minor,,
Tianfu,37.197232,122.052282,China,CN,Shandong,minor,,
Shiyan,32.6475,110.778056,China,CN,Hubei,minor,,
Longsheng,25.793611,110.009167,China,CN,Guangxi,minor,,
Sanjiaocheng,36.890833,100.999722,China,CN,Qinghai,minor,,
Leidaba,27.957234,104.338717,China,CN,Yunnan,minor,,
Youhao,47.853059,128.835654,China,CN,Heilongjiang,minor,,
Weizhou,31.492673,103.584915,China,CN,Sichuan,minor,,
Tongzilin,26.700387,101.851342,China,CN,Sichuan,minor,,
Jianjun,34.691389,108.139722,China,CN,Shaanxi,minor,,
Nancun,35.4635,112.796,China,CN,Shanxi,minor,,
Dartang,31.933333,94.0,China,CN,Tibet,minor,,
Huquan,39.795376,114.183033,China,CN,Shanxi,minor,,
Jingchuan Chengguanzhen,35.331944,107.361111,China,CN,Gansu,minor,,
Handian,36.045833,113.044167,China,CN,Shanxi,minor,,
Jiancheng,30.390968,104.549121,China,CN,Sichuan,minor,,
Donglan,24.550181,107.382885,China,CN,Guangxi,minor,,
Yushan,31.677479,120.801337,China,CN,Jiangsu,minor,,
Wulingyuan,29.349363,110.544071,China,CN,Hunan,minor,,
Xicheng,23.306022,103.163512,China,CN,Yunnan,minor,,
Chengxi,29.53294,108.765096,China,CN,Chongqing,minor,,
Longzhouwan,29.378611,106.54,China,CN,Chongqing,minor,,
Fuying,28.862601,120.719295,China,CN,Zhejiang,minor,,
Kangping,42.739167,123.349444,China,CN,Liaoning,minor,,
Lop,37.07403,80.182314,China,CN,Xinjiang,minor,,
Laojiezi,26.864611,103.137123,China,CN,Yunnan,minor,,
Jiezi,26.789349,102.991894,China,CN,Yunnan,minor,,
Longnan,24.9,114.783333,China,CN,Jiangxi,minor,,
Guyang,28.613854,109.932528,China,CN,Hunan,minor,,
Chatang,29.242215,91.332169,China,CN,Tibet,minor,,
Yuanling,28.448611,110.402222,China,CN,Hunan,minor,,
Dashiqiao,40.637318,122.502508,China,CN,Liaoning,minor,,
Mingren,45.593163,122.818792,China,CN,Jilin,minor,,
Sangpi,28.93391,99.799907,China,CN,Sichuan,minor,,
Toqsu,41.550278,82.616667,China,CN,Xinjiang,minor,,
Jincheng,28.266484,103.568381,China,CN,Sichuan,minor,,
Xinjie,27.704335,103.380366,China,CN,Yunnan,minor,,
Hongshan,47.975798,129.021989,China,CN,Heilongjiang,minor,,
Xinan,23.154455,112.89344,China,CN,Guangdong,minor,,
Genhe,50.783333,121.516667,China,CN,Inner Mongolia,minor,,
Chaigoubu,40.667778,114.411389,China,CN,Hebei,minor,,
Xing’an,25.61964,110.642482,China,CN,Guangxi,minor,,
Dongta,38.081401,106.34444,China,CN,Ningxia,minor,,
Daliyuan,27.183708,103.486416,China,CN,Yunnan,minor,,
Machali,34.933333,98.233333,China,CN,Qinghai,minor,,
Huayuan,33.468803,114.873144,China,CN,Henan,minor,,
Huolu,38.080556,114.296111,China,CN,Hebei,minor,,
Shuangcheng,27.24,119.894444,China,CN,Fujian,minor,,
Bainang,29.109,89.2589,China,CN,Tibet,minor,,
Sanjiang,31.348135,118.361315,China,CN,Anhui,minor,,
Gongcheng,24.833333,110.816667,China,CN,Guangxi,minor,,
Zhuyang,30.736741,107.201155,China,CN,Sichuan,minor,,
Xingfeng,39.729652,116.336608,China,CN,Beijing,minor,,
Shengli,40.118179,116.642949,China,CN,Beijing,minor,,
Beiyuan,39.903616,116.64667,China,CN,Beijing,minor,,
Gongchen,39.727956,116.137555,China,CN,Beijing,minor,,
Gulou,40.369972,116.83352,China,CN,Beijing,minor,,
Binhe,40.133467,117.108519,China,CN,Beijing,minor,,
Qusum,29.06574,92.193042,China,CN,Tibet,minor,,
Linping,30.4225,120.297222,China,CN,Zhejiang,minor,,
Jishi,35.84613,102.48171,China,CN,Qinghai,minor,,
Changpu,26.575844,110.107854,China,CN,Hunan,minor,,
Huaiyang Chengguanzhen,33.733333,114.883333,China,CN,Henan,minor,,
Huaiyuan Chengguanzhen,32.958933,117.165658,China,CN,Anhui,minor,,
Sunwu,49.417489,127.315503,China,CN,Heilongjiang,minor,,
Yaodu,30.1,117.016667,China,CN,Anhui,minor,,
Xiangyang,26.759912,103.253947,China,CN,Yunnan,minor,,
Jiecun,27.224369,102.92283,China,CN,Yunnan,minor,,
Pingquan,41.0025,118.684167,China,CN,Hebei,minor,,
Zhifang,30.35,114.316667,China,CN,Hubei,minor,,
Chengxiang,28.552621,102.168201,China,CN,Sichuan,minor,,
Bayan Huxu,45.15,121.4,China,CN,Inner Mongolia,minor,,
Topterek,47.434029,85.871134,China,CN,Xinjiang,minor,,
Chengzhong,22.168236,107.007296,China,CN,Guangxi,minor,,
Zhanqian,46.800109,130.375466,China,CN,Heilongjiang,minor,,
Qiaonan,46.803609,130.358047,China,CN,Heilongjiang,minor,,
Enle,23.960493,101.082649,China,CN,Yunnan,minor,,
Enjiang,27.321775,115.429249,China,CN,Jiangxi,minor,,
Jinzhu,29.041863,100.294784,China,CN,Sichuan,minor,,
Xagmakajor,31.4944,82.3324,China,CN,Tibet,minor,,
Dongjie,26.088225,119.294489,China,CN,Fujian,minor,,
Qagan Us,36.397194,98.012224,China,CN,Qinghai,minor,,
Hengshui,25.7,114.316667,China,CN,Jiangxi,minor,,
Guanshan,37.8081,113.597,China,CN,Shanxi,minor,,
Pingdingbu,41.665278,115.697778,China,CN,Hebei,minor,,
Maoming,21.65,110.9,China,CN,Guangdong,minor,,
Jinyuan,37.726944,112.470833,China,CN,Shanxi,minor,,
Gangba,28.2166,88.4743,China,CN,Tibet,minor,,
Yuquan,40.44259,113.974422,China,CN,Shanxi,minor,,
Tianzhou,23.778613,106.897179,China,CN,Guangxi,minor,,
Fuji,29.148188,105.373913,China,CN,Sichuan,minor,,
Hailin,44.571486,129.385387,China,CN,Heilongjiang,minor,,
Lanjiang,29.215111,119.461214,China,CN,Zhejiang,minor,,
Sanchahe,44.963063,126.015319,China,CN,Jilin,minor,,
Nanjian,25.048011,100.532235,China,CN,Yunnan,minor,,
Nanjiang,32.35389,106.83238,China,CN,Sichuan,minor,,
Dongzhen,22.379713,110.938854,China,CN,Guangdong,minor,,
Leicheng,20.915577,110.083708,China,CN,Guangdong,minor,,
Gabasumdo,35.258901,100.549944,China,CN,Qinghai,minor,,
Xiangkou,29.3305,107.737,China,CN,Chongqing,minor,,
Chengjiang,26.801709,114.89978,China,CN,Jiangxi,minor,,
Xinhualu,34.396334,113.724662,China,CN,Henan,minor,,
Yongchang Chengguanzhen,38.270532,102.020174,China,CN,Gansu,minor,,
Jiezishang,26.989366,103.344716,China,CN,Yunnan,minor,,
Sanguanzhai,27.107657,103.256575,China,CN,Yunnan,minor,,
Huangmei,30.192347,116.024959,China,CN,Hubei,minor,,
Peicheng,34.736111,116.924722,China,CN,Jiangsu,minor,,
Dongtai,32.852311,120.309472,China,CN,Jiangsu,minor,,
Niupizhai,28.111521,104.381411,China,CN,Yunnan,minor,,
Wuzhong,37.9867,106.201,China,CN,Ningxia,minor,,
Bayan Hure,49.5,119.516667,China,CN,Inner Mongolia,minor,,
Rizhao,35.395793,119.532166,China,CN,Shandong,minor,,
Guangming,28.310197,102.411892,China,CN,Sichuan,minor,,
Jinggan,34.53,108.834167,China,CN,Shaanxi,minor,,
Shengli,37.462708,118.491653,China,CN,Shandong,minor,,
Qitai,41.549444,113.533889,China,CN,Inner Mongolia,minor,,
Kuiju,36.853611,119.390833,China,CN,Shandong,minor,,
Hongqiao,26.768369,112.108136,China,CN,Hunan,minor,,
Baixi,28.699702,104.549173,China,CN,Sichuan,minor,,
Shuanghejiedao,30.374476,106.772655,China,CN,Sichuan,minor,,
Meicheng,26.215278,118.861111,China,CN,Fujian,minor,,
Mêdog,29.313286,95.307414,China,CN,Tibet,minor,,
Jiantang,27.822442,99.769288,China,CN,Yunnan,minor,,
Yunhe,26.55308,100.193823,China,CN,Yunnan,minor,,
Anxiang,29.4,112.15,China,CN,Hunan,minor,,
Guye,39.730543,118.440849,China,CN,Hebei,minor,,
Guyi,25.777778,109.600278,China,CN,Guangxi,minor,,
Guoyang Chengguanzhen,33.505502,116.230795,China,CN,Anhui,minor,,
Jin’an,32.639411,103.596829,China,CN,Sichuan,minor,,
Jinbi,25.708552,101.336794,China,CN,Yunnan,minor,,
Shangba,27.629587,103.304472,China,CN,Yunnan,minor,,
Dabancheng,43.358334,88.320038,China,CN,Xinjiang,minor,,
Gaohe,30.741731,116.842592,China,CN,Anhui,minor,,
Gengma,23.523251,99.378602,China,CN,Yunnan,minor,,
Hoxut,42.258611,86.857778,China,CN,Xinjiang,minor,,
Xianfeng,44.575032,129.602552,China,CN,Heilongjiang,minor,,
Xiangyang,44.587993,129.579772,China,CN,Heilongjiang,minor,,
Xinguan,39.455272,111.530011,China,CN,Shanxi,minor,,
Shimen,25.894787,99.429355,China,CN,Yunnan,minor,,
Shuangzhong,29.742961,116.22426,China,CN,Jiangxi,minor,,
Xiangyang,37.531571,121.393884,China,CN,Shandong,minor,,
Xin Bulag,42.2375,113.836389,China,CN,Inner Mongolia,minor,,
Xiguan,33.866667,115.466667,China,CN,Henan,minor,,
Jinshan,41.033491,110.052046,China,CN,Inner Mongolia,minor,,
Jinrongjie,39.912217,116.356154,China,CN,Beijing,minor,,
Chaowai,39.918119,116.432425,China,CN,Beijing,minor,,
Nan’an,23.031361,112.451076,China,CN,Guangdong,minor,,
Linquan Chengguanzhen,33.085057,115.290231,China,CN,Anhui,minor,,
Qingnian,36.840325,115.711828,China,CN,Shandong,minor,,
Uliastai,45.55,116.833333,China,CN,Inner Mongolia,minor,,
Dong’an,46.594049,125.078779,China,CN,Heilongjiang,minor,,
Fengxian,30.918679,121.456554,China,CN,Shanghai,minor,,
Zequ,35.036606,101.466159,China,CN,Qinghai,minor,,
Qinjiang,26.329938,116.334669,China,CN,Jiangxi,minor,,
Amgalang,48.25,118.2,China,CN,Inner Mongolia,minor,,
Ri’ngoin,29.605,89.005,China,CN,Tibet,minor,,
Xuhui,31.195944,121.44709,China,CN,Shanghai,minor,,
Pingshan,25.519848,102.475807,China,CN,Yunnan,minor,,
Jiuchenggong,34.678684,107.787579,China,CN,Shaanxi,minor,,
Sanma,36.196666,115.076185,China,CN,Hebei,minor,,
Nanchangshan,37.930493,120.729084,China,CN,Shandong,minor,,
Wanghailou,39.159544,117.203384,China,CN,Tianjin,minor,,
Duji,33.997654,116.828403,China,CN,Anhui,minor,,
Niangxi,27.308563,111.431859,China,CN,Hunan,minor,,
Cuijiang,26.263215,116.649909,China,CN,Fujian,minor,,
Nangxian,29.047007,93.087948,China,CN,Tibet,minor,,
Junyang,28.416667,115.366667,China,CN,Jiangxi,minor,,
Yunxian Chengguanzhen,32.831292,110.808749,China,CN,Hubei,minor,,
Aihua,24.416667,100.1,China,CN,Yunnan,minor,,
Xiushui,38.103787,113.38865,China,CN,Shanxi,minor,,
Wutong,30.632875,120.560805,China,CN,Zhejiang,minor,,
Yanta,34.206359,108.952398,China,CN,Shaanxi,minor,,
Zhaosu,43.122778,81.075833,China,CN,Xinjiang,minor,,
Baicheng,41.773889,81.868889,China,CN,Xinjiang,minor,,
Zhengzhou,34.757778,113.648611,China,CN,Henan,admin,,
Fugou Chengguanzhen,34.066667,114.383333,China,CN,Henan,minor,,
Wenping,27.193062,103.5273,China,CN,Yunnan,minor,,
Fuyu,47.79756,124.457309,China,CN,Heilongjiang,minor,,
Daban,43.533333,118.666667,China,CN,Inner Mongolia,minor,,
Tekes,43.190278,81.777778,China,CN,Xinjiang,minor,,
Fengyi,31.684117,103.853818,China,CN,Sichuan,minor,,
Fengyang Fuchengzhen,32.879693,117.544652,China,CN,Anhui,minor,,
Fengyi,28.5537,107.439,China,CN,Guizhou,minor,,
Xianghe,32.090882,118.25001,China,CN,Anhui,minor,,
Shiquanhe,32.501245,80.097577,China,CN,Tibet,minor,,
Yinying,37.936944,113.5575,China,CN,Shanxi,minor,,
Puxi,35.195833,114.685,China,CN,Henan,minor,,
Yong’an,31.020561,109.458713,China,CN,Chongqing,minor,,
Yong’an,25.98,117.364167,China,CN,Fujian,minor,,
Taihe Chengguanzhen,33.165518,115.648859,China,CN,Anhui,minor,,
Meishan,31.729135,115.912409,China,CN,Anhui,minor,,
Mucheng,35.095556,113.39,China,CN,Henan,minor,,
Wenfeng,27.198994,115.119628,China,CN,Jiangxi,minor,,
Yangjiaping,29.505118,106.501347,China,CN,Chongqing,minor,,
Shengli,37.984253,106.196589,China,CN,Ningxia,minor,,
Andongwei,35.100352,119.333439,China,CN,Shandong,minor,,
Jizhou,27.114714,114.979545,China,CN,Jiangxi,minor,,
Hobor,41.27154,112.62663,China,CN,Inner Mongolia,minor,,
Bayan Hot,38.838611,105.668611,China,CN,Inner Mongolia,minor,,
Guangming,45.333333,122.783333,China,CN,Jilin,minor,,
Zijin,33.289167,111.474444,China,CN,Henan,minor,,
Quanzhou,25.944595,111.036395,China,CN,Guangxi,minor,,
Wuma,28.017306,120.665948,China,CN,Zhejiang,minor,,
Helie,31.521403,120.289615,China,CN,Jiangsu,minor,,
Gartog,29.684505,98.594732,China,CN,Tibet,minor,,
Mengjin Chengguanzhen,34.8269,112.431292,China,CN,Henan,minor,,
Lankao Chengguanzhen,34.832939,114.807177,China,CN,Henan,minor,,
Anyang,23.937964,108.097654,China,CN,Guangxi,minor,,
Guyong,26.730833,117.468333,China,CN,Fujian,minor,,
Galutu,38.600864,108.847421,China,CN,Inner Mongolia,minor,,
Aletengxire,39.57993,109.75821,China,CN,Inner Mongolia,minor,,
Yuanshan,24.369588,114.489619,China,CN,Guangdong,minor,,
Hong’an,47.205544,123.625242,China,CN,Heilongjiang,minor,,
Nanjie,38.954617,100.472369,China,CN,Gansu,minor,,
Xingpinglu,36.727518,104.813791,China,CN,Gansu,minor,,
Nanzhou,29.359551,112.402433,China,CN,Hunan,minor,,
Tarrong,29.416667,90.25,China,CN,Tibet,minor,,
Zhangcheng,25.846763,118.936922,China,CN,Fujian,minor,,
Huaicheng,23.919521,112.17629,China,CN,Guangdong,minor,,
Shuangfengqiao,29.71859,106.627117,China,CN,Chongqing,minor,,
Youganning,34.735644,101.611409,China,CN,Qinghai,minor,,
Chujiang,29.5771,111.363,China,CN,Hunan,minor,,
Shilu,31.311687,120.594094,China,CN,Jiangsu,minor,,
Shangpa,26.919478,98.95158,China,CN,Yunnan,minor,,
Ma’anshan,31.685787,118.510078,China,CN,Anhui,minor,,
Qianling,28.711872,109.645969,China,CN,Hunan,minor,,
Qira,37.028472,80.802867,China,CN,Xinjiang,minor,,
Hede,33.772197,120.261756,China,CN,Jiangsu,minor,,
Shanzidi,26.553843,103.260448,China,CN,Yunnan,minor,,
Longshan,40.320155,116.629085,China,CN,Beijing,minor,,
Luhua,36.331389,113.224444,China,CN,Shanxi,minor,,
Daxing,22.969162,102.406106,China,CN,Yunnan,minor,,
Jinshan,41.916667,118.666667,China,CN,Inner Mongolia,minor,,
Jinshan,25.115079,102.098325,China,CN,Yunnan,minor,,
Ulan Hua,41.513056,111.696389,China,CN,Inner Mongolia,minor,,
Bayinsai,39.500221,106.720205,China,CN,Inner Mongolia,minor,,
Quyang,26.57507,109.63808,China,CN,Hunan,minor,,
Zhicheng,31.005405,119.904882,China,CN,Zhejiang,minor,,
Yongxing Chengguanzhen,26.124082,113.128517,China,CN,Hunan,minor,,
Yangxin,37.644722,117.576667,China,CN,Shandong,minor,,
Qincheng,27.212702,116.530082,China,CN,Jiangxi,minor,,
Zongyang,30.698889,117.204167,China,CN,Anhui,minor,,
Nanhaoqian,41.068056,113.960278,China,CN,Hebei,minor,,
Donghua,35.2152,106.653,China,CN,Gansu,minor,,
Donghuang,28.332966,106.215567,China,CN,Guizhou,minor,,
Shangli,27.8771,113.792,China,CN,Jiangxi,minor,,
Weichanglu,37.180725,119.942166,China,CN,Shandong,minor,,
Qajortêbu,30.933333,88.633333,China,CN,Tibet,minor,,
Pingchuan,25.094529,116.096011,China,CN,Fujian,minor,,
Zhenyang,32.603611,114.383056,China,CN,Henan,minor,,
Guting,34.998713,116.6619,China,CN,Shandong,minor,,
Laodianzi,26.930824,103.292171,China,CN,Yunnan,minor,,
Xincheng,35.875,111.435278,China,CN,Shanxi,minor,,
Yuzhong Chengguanzhen,35.842778,104.1125,China,CN,Gansu,minor,,
Jiangkou,31.565062,107.097356,China,CN,Sichuan,minor,,
Temuli,27.707947,102.807684,China,CN,Sichuan,minor,,
Tantou,28.283333,104.266667,China,CN,Yunnan,minor,,
Luojiang,31.304971,104.504837,China,CN,Sichuan,minor,,
Xunyi Chengguanzhen,35.11732,108.312754,China,CN,Shaanxi,minor,,
Xun Xian Chengguanzhen,35.664727,114.534581,China,CN,Henan,minor,,
Qingping,34.536564,113.375265,China,CN,Henan,minor,,
Qonggyaixoi,29.027701,91.682682,China,CN,Tibet,minor,,
Huamachi,37.785198,107.403221,China,CN,Ningxia,minor,,
Xiaopu,25.239166,111.316644,China,CN,Hunan,minor,,
Nanchang,28.683333,115.883333,China,CN,Jiangxi,admin,,
Nanchangshan,37.915222,120.732465,China,CN,Shandong,minor,,
Tiandiba,27.701782,103.248056,China,CN,Sichuan,minor,,
Kaijiang,31.03959,104.674476,China,CN,Sichuan,minor,,
Bayan Gol,40.3,106.983333,China,CN,Inner Mongolia,minor,,
Zishui,32.007727,114.901078,China,CN,Henan,minor,,
Guangrao,37.052861,118.399099,China,CN,Shandong,minor,,
Baicheng,33.386389,114.015833,China,CN,Henan,minor,,
Machang,26.1079,104.268022,China,CN,Yunnan,minor,,
Jinghai,38.933735,116.926987,China,CN,Tianjin,minor,,
Hutang,31.715815,119.944576,China,CN,Jiangsu,minor,,
Xidu,26.956288,112.368285,China,CN,Hunan,minor,,
Louqiao,28.010614,120.632183,China,CN,Zhejiang,minor,,
Hejiang,28.81161,105.833587,China,CN,Sichuan,minor,,
Ganzi,31.627439,99.994131,China,CN,Sichuan,minor,,
Dongxing,45.360884,130.786789,China,CN,Heilongjiang,minor,,
Huanggang,30.451434,114.870347,China,CN,Hubei,minor,,
Tantang,23.136844,109.41314,China,CN,Guangxi,minor,,
Zhoushan,30.010754,122.204649,China,CN,Zhejiang,minor,,
Shayang,30.717839,112.605766,China,CN,Hubei,minor,,
Nanzhao,25.222218,100.303444,China,CN,Yunnan,minor,,
Longjing,42.771389,129.423333,China,CN,Jilin,minor,,
Dêqên,29.666667,91.35,China,CN,Tibet,minor,,
Nanzhao Chengguanzhen,33.492492,112.427228,China,CN,Henan,minor,,
Nanzhao,23.719898,117.171029,China,CN,Fujian,minor,,
Mali,23.126215,104.740898,China,CN,Yunnan,minor,,
Dengtalu,36.138605,114.106589,China,CN,Henan,minor,,
Dage,41.198889,116.644167,China,CN,Hebei,minor,,
Dazhasi,33.577954,102.964115,China,CN,Sichuan,minor,,
Tangxiang,29.702259,105.723631,China,CN,Chongqing,minor,,
Shima,24.446469,117.812155,China,CN,Fujian,minor,,
Shuangshipu,33.917054,106.524664,China,CN,Shaanxi,minor,,
Xia’er,29.005935,101.514394,China,CN,Sichuan,minor,,
Longde Chengguanzhen,35.6125,106.116667,China,CN,Ningxia,minor,,
Hengshan,31.41238,116.319351,China,CN,Anhui,minor,,
Huoqiu Chengguanzhen,32.354727,116.293898,China,CN,Anhui,minor,,
Leping,28.966667,117.116667,China,CN,Jiangxi,minor,,
Beidajie,31.585283,120.290044,China,CN,Jiangsu,minor,,
Hekou,22.538506,104.01109,China,CN,Yunnan,minor,,
Aral,40.541836,81.26566,China,CN,Xinjiang,minor,,
Bamiantong,44.917377,130.520001,China,CN,Heilongjiang,minor,,
Tiandeng,23.126576,107.093693,China,CN,Guangxi,minor,,
Guangzhoulu,38.499148,102.168089,China,CN,Gansu,minor,,
Yunyang,31.995628,119.564635,China,CN,Jiangsu,minor,,
Ziketan,35.58621,99.987901,China,CN,Qinghai,minor,,
Linli,29.45,111.65,China,CN,Hunan,minor,,
Lufeng,27.909444,110.585833,China,CN,Hunan,minor,,
Jinsha,32.089817,121.073546,China,CN,Jiangsu,minor,,
Tiexianxi,27.911929,103.889386,China,CN,Yunnan,minor,,
Yangshuo,24.784414,110.475135,China,CN,Guangxi,minor,,
Jinxiang,35.070381,116.323859,China,CN,Shandong,minor,,
Wangkui,46.832831,126.477679,China,CN,Heilongjiang,minor,,
Qiaowa,27.930791,101.277812,China,CN,Sichuan,minor,,
Xincheng,35.3,111.664167,China,CN,Shanxi,minor,,
Ramai,29.244727,90.847686,China,CN,Tibet,minor,,
Qianguo,45.117115,124.856761,China,CN,Jilin,minor,,
Pingle,24.645225,110.643061,China,CN,Guangxi,minor,,
Jiujiang,29.733333,115.983333,China,CN,Jiangxi,minor,,
Guiyang Chengguanzhen,25.733334,112.745892,China,CN,Hunan,minor,,
Zhenyuan Chengguanzhen,35.6775,107.196389,China,CN,Gansu,minor,,
Zhenzhou,32.280342,119.16999,China,CN,Jiangsu,minor,,
Wenlan,23.360024,103.43684,China,CN,Yunnan,minor,,
Yuping,22.976933,103.710848,China,CN,Yunnan,minor,,
Rangke,32.267781,100.97908,China,CN,Sichuan,minor,,
Aratürük,43.249182,94.694303,China,CN,Xinjiang,minor,,
Taicheng,38.731017,113.228005,China,CN,Shanxi,minor,,
Bügür,41.773889,84.244167,China,CN,Xinjiang,minor,,
Xuri,47.72685,128.899941,China,CN,Heilongjiang,minor,,
Binhu,32.030085,118.757679,China,CN,Jiangsu,minor,,
Licheng,31.428127,119.483533,China,CN,Jiangsu,minor,,
Kaiyun,27.213511,112.855995,China,CN,Hunan,minor,,
Yanliang,34.659177,109.22921,China,CN,Shaanxi,minor,,
Anling,34.108899,114.169833,China,CN,Henan,minor,,
Xingcheng,24.148297,115.722721,China,CN,Guangdong,minor,,
Wenxian Chengguanzhen,32.947124,104.681387,China,CN,Gansu,minor,,
Juye,35.394722,116.088333,China,CN,Shandong,minor,,
Namling,29.68527,89.095559,China,CN,Tibet,minor,,
Namka,29.65,90.983333,China,CN,Tibet,minor,,
Zhenping Chengguanzhen,33.033137,112.233206,China,CN,Henan,minor,,
Xiangdong,27.652071,113.724065,China,CN,Jiangxi,minor,,
Shahe,39.14165,100.17836,China,CN,Gansu,minor,,
Tongchuan,34.898799,108.950562,China,CN,Shaanxi,minor,,
Rifeng,27.297283,116.911074,China,CN,Jiangxi,minor,,
Yunxixian Chengguanzhen,32.98276,110.423058,China,CN,Hubei,minor,,
Yunxi,31.226399,105.386137,China,CN,Sichuan,minor,,
Tuojiang,27.954717,109.567975,China,CN,Hunan,minor,,
Tuojiang,25.186667,111.571667,China,CN,Hunan,minor,,
Jianchang,27.558312,116.639779,China,CN,Jiangxi,minor,,
Emin,46.525738,83.633245,China,CN,Xinjiang,minor,,
Niushan,34.523523,118.764951,China,CN,Jiangsu,minor,,
Yêndum,30.657215,97.5731,China,CN,Tibet,minor,,
Dadukou,26.547902,101.705386,China,CN,Sichuan,minor,,
Nanpi,38.033333,116.7,China,CN,Hebei,minor,,
Lianhe,47.133333,129.274262,China,CN,Heilongjiang,minor,,
Liaogao,28.17,109.195,China,CN,Guizhou,minor,,
Gucheng Chengguanzhen,32.266043,111.634759,China,CN,Hubei,minor,,
Wuxi,26.5844,111.859,China,CN,Hunan,minor,,
Hezhang,27.122222,104.723889,China,CN,Guizhou,minor,,
Hezheng Chengguanzhen,35.429986,103.357254,China,CN,Gansu,minor,,
Suonan,35.666531,103.397919,China,CN,Gansu,minor,,
Ziyuan,26.036667,110.640556,China,CN,Guangxi,minor,,
Jiekou,23.549916,113.580993,China,CN,Guangdong,minor,,
Lindong,43.983333,119.183333,China,CN,Inner Mongolia,minor,,
Rongmei,29.893333,110.026111,China,CN,Hubei,minor,,
Xinmian,29.239923,102.372081,China,CN,Sichuan,minor,,
Longcheng,29.899116,116.551054,China,CN,Jiangxi,minor,,
Fucheng,36.146845,112.233511,China,CN,Shanxi,minor,,
Wuxue Shi,29.915253,115.414319,China,CN,Hubei,minor,,
Fuliang,29.376389,117.246667,China,CN,Jiangxi,minor,,
Guangrao,37.259691,118.463446,China,CN,Shandong,minor,,
Shijiao,23.869486,113.5284,China,CN,Guangdong,minor,,
Dazhe,24.575564,115.891835,China,CN,Guangdong,minor,,
Dazhong,33.199728,120.457805,China,CN,Jiangsu,minor,,
Jiangpu,32.06149,118.623995,China,CN,Jiangsu,minor,,
Jiahe Chengguanzhen,25.559362,112.363519,China,CN,Hunan,minor,,
Gutao,37.2025,112.178056,China,CN,Shanxi,minor,,
Xunzhong,25.494313,118.238854,China,CN,Fujian,minor,,
Kumul,42.827185,93.526587,China,CN,Xinjiang,minor,,
Huazhou,34.515225,109.757589,China,CN,Shaanxi,minor,,
Dingcheng,32.127222,115.039444,China,CN,Henan,minor,,
Yanshou,45.453244,128.326784,China,CN,Heilongjiang,minor,,
Shancheng,26.900532,117.163115,China,CN,Fujian,minor,,
Qingquan,38.793119,101.088683,China,CN,Gansu,minor,,
Longcheng,34.184481,116.950767,China,CN,Anhui,minor,,
Longchuan,25.161522,101.294182,China,CN,Yunnan,minor,,
Xiasima,27.494024,88.952957,China,CN,Tibet,minor,,
Qitai,44.027884,89.579803,China,CN,Xinjiang,minor,,
Dajie,24.296228,102.750637,China,CN,Yunnan,minor,,
Gongjing,29.347479,104.711569,China,CN,Sichuan,minor,,
Zhugang,28.138321,121.226213,China,CN,Zhejiang,minor,,
Shuimogou,43.828563,87.638204,China,CN,Xinjiang,minor,,
Leiyang,30.120431,116.682925,China,CN,Anhui,minor,,
Caohe,30.2297,115.433461,China,CN,Hubei,minor,,
Racaka,31.4,96.516667,China,CN,Tibet,minor,,
Shuimo,27.301949,103.414327,China,CN,Yunnan,minor,,
Qishan,29.844307,117.719372,China,CN,Anhui,minor,,
Danzhu,36.124505,112.861014,China,CN,Shanxi,minor,,
Gyêgu,33.005866,97.010119,China,CN,Qinghai,minor,,
Lizhi,29.703167,107.395206,China,CN,Chongqing,minor,,
Guantao,36.540992,115.282929,China,CN,Hebei,minor,,
Chonglong,29.780617,104.852242,China,CN,Sichuan,minor,,
Linjiang,25.051671,116.420302,China,CN,Fujian,minor,,
Wuquan,33.44408,113.570896,China,CN,Henan,minor,,
Shangpai,31.745649,117.161093,China,CN,Anhui,minor,,
Gulou,26.086531,119.297977,China,CN,Fujian,minor,,
Xiangfeng,29.507613,109.402662,China,CN,Hubei,minor,,
Xinjia,37.6574,120.485,China,CN,Shandong,minor,,
Qinhong,32.011346,118.796551,China,CN,Jiangsu,minor,,
Fangsong,31.032853,121.189433,China,CN,Shanghai,minor,,
Zhaobaoshan,29.969497,121.687529,China,CN,Zhejiang,minor,,
Qianquan,30.871258,114.37258,China,CN,Hubei,minor,,
Yankou,30.351153,106.286692,China,CN,Sichuan,minor,,
Haicheng,22.975326,115.331794,China,CN,Guangdong,minor,,
Haidian,39.990638,116.288684,China,CN,Beijing,minor,,
Jiangna,23.609196,104.37312,China,CN,Yunnan,minor,,
Taihe,23.735355,112.977823,China,CN,Guangdong,minor,,
Nan’an,25.399773,114.362182,China,CN,Jiangxi,minor,,
Gaoyao,23.024318,112.445549,China,CN,Guangdong,minor,,
Zhangwan,32.083264,112.166667,China,CN,Hubei,minor,,
Guhan,36.535466,113.02528,China,CN,Shanxi,minor,,
Luoshan Chengguanzhen,32.203185,114.509418,China,CN,Henan,minor,,
Danxi,29.474722,121.865556,China,CN,Zhejiang,minor,,
Xincheng,33.633333,115.183333,China,CN,Henan,minor,,
Zhaoyu,37.355278,112.316667,China,CN,Shanxi,minor,,
Dabu,24.667388,109.235467,China,CN,Guangxi,minor,,
Magitang,35.938591,102.029681,China,CN,Qinghai,minor,,
Nanpiao,41.098218,120.747923,China,CN,Liaoning,minor,,
Mingzhou,36.976098,115.256626,China,CN,Hebei,minor,,
Chuansiba,28.319645,104.129582,China,CN,Yunnan,minor,,
Xincheng,39.986771,112.461351,China,CN,Shanxi,minor,,
Zhonghe,28.45049,108.989015,China,CN,Chongqing,minor,,
Guanyang,25.495226,111.134866,China,CN,Guangxi,minor,,
Lin’an,23.602549,102.830922,China,CN,Yunnan,minor,,
Heyin,36.044082,101.428737,China,CN,Qinghai,minor,,
Hejing,42.316389,86.382778,China,CN,Xinjiang,minor,,
Gecheng,31.948564,108.660732,China,CN,Chongqing,minor,,
Gêding,29.366667,88.25,China,CN,Tibet,minor,,
Qiaoxu,22.95616,109.76072,China,CN,Guangxi,minor,,
Lincheng,19.907778,109.685833,China,CN,Hainan,minor,,
Miyang,24.404167,103.442778,China,CN,Yunnan,minor,,
Baiyang,35.8511,106.639,China,CN,Ningxia,minor,,
Fulilu,36.101677,103.615733,China,CN,Gansu,minor,,
Shahejie,29.60794,115.887205,China,CN,Jiangxi,minor,,
Weichang,41.944722,117.748056,China,CN,Hebei,minor,,
Liangdang Chengguanzhen,33.909722,106.302222,China,CN,Gansu,minor,,
Zhangfeng,24.220852,97.786834,China,CN,Yunnan,minor,,
Qianyang Chengguanzhen,34.642085,107.130187,China,CN,Shaanxi,minor,,
Mengmeng,23.465021,99.80206,China,CN,Yunnan,minor,,
Sanhe,36.5641,105.639,China,CN,Ningxia,minor,,
Xingguo,26.326078,115.347161,China,CN,Jiangxi,minor,,
Tieyingzi,41.77861,119.879849,China,CN,Liaoning,minor,,
Mositai,45.535385,119.666983,China,CN,Inner Mongolia,minor,,
